Codigo,Nome da Camera,Latitude,Longitude,cluster_id
000001,Av. Pres.Vargas X R. 1º Março,-22.900259,-43.177031,-1.0
000002,Av. Pres.Vargas X Av. Rio Branco,-22.901392,-43.179391,-1.0
000003,Av. Pres.Vargas X Pça. da República,-22.904902,-43.190353,-1.0
000004,Av. 20 de Janeiro X Terminal 1 - Brt,-22.809417,-43.251543989999995,-1.0
000005,Av. Rio Branco X Av. Beira Mar,-22.913741,-43.174155,-1.0
000006,Av. Rio Branco X Av. Alm. Barroso,-22.908029,-43.176985,-1.0
000007,Av. 20 de Janeiro X Base da Guarda Municipal - Brt,-22.815593,-43.242096,-1.0
000008,R. Visconde Do Rio Branco X R. Dos Inválidos - FIXA,-22.908246,-43.186069,-1.0
000009,Av. Presidente Antonio Carlos X Av. Almirante Barroso,-22.906766,-43.172901,-1.0
000010,R. Santana X R. Frei Caneca - FIXA,-22.911155,-43.193351,-1.0
000011,Largo Do Estácio,-22.913996,-43.204558,-1.0
000012,R. das Laranjeiras X Soares Cabral,-22.934559999999998,-43.187492,-1.0
000013,Praia de Botafogo X Viaduto Santiago Dantas,-22.943196,-43.181659999999994,-1.0
000014,R. São Clemente X R. Muniz de Barreto,-22.94935,-43.184177,-1.0
000015,R. São Clemente X Consulado Português,-22.952073,-43.19581999999999,-1.0
000016,R. Jardim Botânico Próximo Ao Parque Lage,-22.961257,-43.212939,-1.0
000017,Av. Borges de Medeiros X Av. Epitácio Pessoa,-22.963021,-43.204446,-1.0
000018,R. Mário Ribeiro X Av. Borges de Medeiros,-22.976902,-43.21907999999999,-1.0
000019,R. Voluntários da Pátria X R. Real Grandeza,-22.954405,-43.192948,-1.0
000020,ATERRO X AV. OSWALDO CRUZ,-22.942467,-43.178155,-1.0
000021,Praça da Bandeira,-22.910919,-43.213874,-1.0
000022,Av. Pres. Castelo Branco X R. Radialista Waldir Amaral,-22.910177,-43.233605,-1.0
000023,R. Barata Ribeiro X R. Duvivier,-22.963906,-43.178505,-1.0
000024,Av. Nossa Sra. de Copacabana X R. Ronald de Carvalho,-22.965117,-43.176944,-1.0
000025,Av. Atlântica X Av. Princesa Isabel,-22.964967,-43.173588,-1.0
000026,Av. Atlântica X R. Figueiredo de Magalhães,-22.971867,-43.184628,-1.0
000027,Av. N. Sra. de Copacabana X R. Sta. Clara,-22.971621,-43.18743,-1.0
000028,Av. Atlântica X R. Rainha Elisabeth,-22.984335,-43.189473,-1.0
000029,Corte Do Cantagalo X Pça. Eugênio Jardim,-22.976515,-43.194135,-1.0
000030,R. Raul Pompéia X R. Francisco Otaviano,-22.986985,-43.190727,-1.0
000031,Av. Vieira Souto X R. Rainha Elizabeth,-22.986892,-43.197786,-1.0
000032,Av. Epitácio Pessoa X R. Maria Quitéria,-22.980723,-43.207148,60.0
000033,Av. Delfim Moreira X R. Bartolomeu Mitre,-22.987068,-43.222374,-1.0
000034,R. Visconde de Pirajá X R. Gomes Carneiro,-22.98483,-43.195183,-1.0
000035,R. Barata Ribeiro X R. Constante Ramos,-22.972881,-43.190783,-1.0
000036,Trevo das Forças Armadas,-22.91028841,-43.209297629999995,-1.0
000037,Estr. Do Galeão - Base Aérea Ilha - Brt,-22.83101,-43.237093,-1.0
000038,R. Teixeira de Castro X Av. dos Campeoes - Brt,-22.855061,-43.251987,-1.0
000039,Av. Pres. Antonio Carlos X Av. Franklin Roosevelt,-22.910115,-43.171723,-1.0
000040,Praça Tiradentes,-22.906984,-43.182051,43.0
000041,Lapa - FIXA,-22.913628,-43.178807,-1.0
000042,R. Praia Do Flamengo X R. Barão Do Flamengo,-22.933241,-43.174673,-1.0
000043,R. Humaitá X R. Macedo Sobrinho,-22.957511,-43.199065,-1.0
000044,R. Jardim Botânico X R. Pacheco Leão,-22.966389999999997,-43.219492,30.0
000045,Praça Sibéluis,-22.978488,-43.226668,-1.0
000046,R. Voluntários da Pátria X R. Praia de Botafogo,-22.950509,-43.181605,-1.0
000047,AV. LAOURO SODRÉ X R. GENERAL GOIS MONTEIRO,-22.955582,-43.178137,-1.0
000048,Av. Maracanã X R. Eurico Rabelo,-22.915067,-43.228917,-1.0
000049,R. Barata Ribeiro X R. Siqueira Campos,-22.968321,-43.185329,-1.0
000050,Av. N. Sra. de Copacabana X R. Alm. Gonçalves,-22.979945,-43.191186,-1.0
000051,R. Visconde de Pirajá X R. Maria Quitéria,-22.984059,-43.207227,-1.0
000052,R. Ataulfo de Paiva X R. Afrânio de Melo Franco,-22.983772,-43.218038,-1.0
000053,Av. Presidente Wilson X Av. Calógeras,-22.911375,-43.173341,-1.0
000054,Av. Embaixador Abelardo Bueno X Estr. Cel. Pedro Correa,-22.973309,-43.385863,-1.0
000055,Av. Nelson Cardoso X Estrada dos Bandeirantes - Brt,-22.923148,-43.373789,-1.0
000056,Drummond - FIXA,-22.985163,-43.189169,-1.0
000057,Av. Ayrton Senna X R. Abelardo Bueno,-22.973546,-43.364096,-1.0
000058,Av. Ayrton Senna X Av. Via Parque,-22.984825,-43.365726,-1.0
000059,Av. Ayrton Senna X Hospital Lourenço Jorge,-22.995624,-43.365883,-1.0
000060,Av. Ayrton Senna X Av. Lúcio Costa,-23.010777,-43.365974,-1.0
000061,Lúcio Costa x posto 5,-23.010846,-43.331689989999994,-1.0
000062,Av. Sernambetiba X Praça Do O,-23.012976,-43.318329999999996,-1.0
000063,Av. das Américas X R. Felicissimo Cardoso,-23.000096,-43.353792,-1.0
000064,Av Américas x estação BRT Afrânio Costa,-23.000824,-43.331445,-1.0
000065,Av Américas x estação BRT Bosque Marapendi,-23.003304,-43.323919999999994,-1.0
000066,R. Armando Lombardi X Av. Min. Ivan Lins,-23.007514,-43.304474,-1.0
000067,Praia de São Conrado X Av. prof. Mendes de Morais,-22.999993,-43.269206,-1.0
000068,Autoestrada Lagoa-Barra Em Frente Shopping Fashion Mall,-22.996514,-43.260427,-1.0
000069,Av. Pres. Castelo Branco X R. General Canabarro,-22.910167,-43.22163,-1.0
000070,R. Pereira Nunes X R. Barão de Mesquita,-22.924089,-43.236241,-1.0
000071,São Francisco Xavier X Heitor Beltrão - FIXA,-22.920765,-43.222661,-1.0
000072,R. Conde de Bonfim X R. Uruguai,-22.932703,-43.241217,-1.0
000073,R. Conde de Bonfim X R. General Rocca,-22.924669,-43.233547,-1.0
000074,Boulevard 28 de Setembro X R. Felipe Camarão,-22.913827,-43.235707,32.0
000075,R. Uruguai X R. Maxwell,-22.922275,-43.247679,-1.0
000076,Av. Maracanã X R. Deputado Soares Filho,-22.91837,-43.232143,-1.0
000077,R. Teodoro da Silva X R. Barão de São Francisco,-22.9186,-43.251042,72.0
000078,Av. Pres. Castelo Branco X R. São Francisco Xavier,-22.908611,-43.238374,-1.0
000079,R. Teodoro da Silva X R. Alexandre Calaza,-22.920197,-43.25966,-1.0
000080,Av. Marechal Rondom X R. Barão Do Bom Retiro,-22.905136,-43.269896,-1.0
000081,R. 24 de Maio X R. Bela Vista - FIXA,-22.90272276,-43.26768086,-1.0
000082,R. 24 de Maio X R. Cônego Tobias,-22.90246088,-43.27744960999999,-1.0
000083,R. Arquias Cordeiro X R. José dos Reis (Engenhão),-22.895252,-43.295713,-1.0
000084,R. Ana Néri X R. Licínio Cardoso,-22.899255,-43.244178,-1.0
000085,R. Dias da Cruz X  R. Ana Barbosa,-22.902057,-43.280339,-1.0
000086,R. Dias da Cruz X R. Maranhão,-22.905236,-43.292852,-1.0
000087,R. Amaro Cavalcanti X Viaduto de Todos Os Santos - FIXA,-22.897278,-43.285727,-1.0
000088,R. Aristides Caire X R. Santa Fé,-22.899336,-43.278542,-1.0
000089,Av. Dom Helder Câmara X Viaduto Cristóvão Colombo,-22.883491,-43.291715,-1.0
000090,Av. Dom Helder Câmara X R. Gonzaga de Campos,-22.887579,-43.285181,-1.0
000091,Av. Dom Helder Câmara X R. Leopoldo Bulhões,-22.889616,-43.243819,-1.0
000092,Av. Brasil X Viaduto Ataulfo Alves,-22.887434,-43.23248999999999,39.0
000093,R. Senador Bernardo Monteiro X R. São Luiz Gonzaga,-22.892969,-43.239578,-1.0
000094,Largo da Cancela X R. São Luiz Gonzaga,-22.90029,-43.225348,-1.0
000095,R. Pinheiro Machado  Altura da R. Carlos de Campos,-22.93909,-43.183244,-1.0
000096,R. Pinheiro Machado  Altura da R. das Laranjeiras,-22.933196,-43.184628,-1.0
000097,Viaduto Eng. Noronha  Sob Viaduto Jardel Filho,-22.934568,-43.184539,-1.0
000098,Av. 31 de Março  Saída Do Túnel Santa Bárbara,-22.919632,-43.194175,-1.0
000099,Av. 31 de Março X Praça Apoteose,-22.913982,-43.195426,69.0
000100,Av. 31 de Março X Av. Salvador de Sá,-22.911124,-43.196035,-1.0
000101,Av. 31 de Março  Altura da Av. Presidente Vargas,-22.9075159406143,-43.1971245018177,-1.0
000102,Francisco Eugenio X Figueiredo de Melo X Estação Leopoldina,-22.906448,-43.213027,-1.0
000103,Linha Vermelha  Km 0,-22.897505,-43.218133,-1.0
000104,Vias Elevadas Prof. Eng. Rufino de Almeida  Altura Leopoldina  Pista Superior,-22.906202,-43.213831,-1.0
000105,R. Cardoso de Moraes X R. Emilio Zaluar - Brt,-22.857624,-43.257354,-1.0
000106,R. Leonídia X R. Vassalo Caruso - Brt,-22.850865,-43.263564,-1.0
000107,R. Ibiapina X R. Uranos - Brt,-22.845602,-43.267863,-1.0
000108,Av. General Justo  Próximo Ao Aeroporto Santos Dumont,-22.911078,-43.168378,-1.0
000109,R. Ibiapina X R. Tomaz Ribeiro - Brt,-22.84268,-43.271842,-1.0
000111,Av. Venceslau Brás  Próximo Ao Gmar,-22.950001,-43.177674,-1.0
000112,Viaduto Saint Hilaire  Saída Do Túnel Rebouças  Sobre A Rua Jardim Botânico,-22.960289999999997,-43.204096,11.0
000113,Av. Borges de Medeiros  Altura da Av. Lineu de Paula Machado,-22.963085,-43.212512,-1.0
000114,Av. Borges de  Medeiros  Altura da R. J. J. Seabra,-22.96485,-43.21551999999999,23.0
000115,Av. Borges de  Medeiros  Altura da R. Gal. Garzon,-22.96773141,-43.217451919999995,-1.0
000116,Av. Epitácio Pessoa  Próximo Ao Jardim de Alah,-22.980392,-43.214439,-1.0
000117,R. Jardim Botânico  Altura da Praça Santos Dumont,-22.9744,-43.226147,-1.0
000118,Av. Epitácio Pessoa  Próximo Ao Corte Do Cantagalo,-22.976344,-43.198633,-1.0
000119,Av. Epitácio Pessoa  Próximo Ao Parque da Catacumba,-22.972396,-43.203072,78.0
000120,Autoestrada Lagoa-Barra X Av. Niemeyer,-22.992837,-43.253635,8.0
000121,Praça Baden Powell,-22.981412,-43.22647,-1.0
000122,Autoestrada X Estr. Do Joá - Próximo Ao Túnel de São Conrado,-22.998735,-43.26893,-1.0
000123,Autoestrada X Túnel São Conrado,-23.002544,-43.275531,-1.0
000124,Praça Tiradentes X A.Passos,-22.906274,-43.18229,43.0
000126,Autoestrada Lagoa-Barra X R. Maria Luiza Pitanga,-23.012415,-43.293128,-1.0
000127,Av. Armando Lombardi acesso Barra Point,-23.006667599999997,-43.309038859999994,0.0
000128,Av. Armando Lombardi,-23.0068506335733,-43.313620238098096,-1.0
000129,Av. das Américas  Próximo Ao Nº 2211  Hotel Dunas,-23.001383,-43.329437,-1.0
000131,Av. das Américas Altura da Av. Luis Carlos Prestes,-22.999886,-43.354569,-1.0
000132,Av. das Américas x Av. Ayrton Senna - Cebolão - FIXA,-23.00016481,-43.369350579999995,-1.0
000133,Av. das Américas X R. Jornalista Ricardo Marinho,-23.000405,-43.347326,-1.0
000134,Av. das Américas X Av. Afonso Arinos de Mello Franco - Eurobarra,-23.003217,-43.324739,-1.0
000135,Av. Ayrton Senna Subida da Linha Amarela,-22.957212,-43.356789,-1.0
000136,Av. Ayrton Senna  Próximo Ao Senac,-22.965357,-43.357022,-1.0
000137,R. Ibiapina X R. Monsenhor Alves - Brt,-22.841588,-43.274756,-1.0
000138,Elevado Paulo de Frontin - Altura da Rua João Paulo I,-22.91563,-43.210022,-1.0
000139,Av. Brasil x R. Santos Lima,-22.895623,-43.214936,-1.0
000140,Elevado Eng. Freyssinet - Altura Do Túnel Rebouças,-22.927414,-43.209474,-1.0
000141,Saída Túnel Rebouças,-22.934877,-43.209638,-1.0
000142,R. Visconde de Niterói Altura Mangueira,-22.908367,-43.236059999999995,-1.0
000143,Av. Braz de Pina X R CMTE. CONCEIÇÃO - FIXA,-22.83992099,-43.28118452,-1.0
000144,Av. Brasil X Linha Amarela,-22.871869,-43.246105,-1.0
000145,Av. Brasil X Canal Do Cunha,-22.880604,-43.239655,-1.0
000146,Av. Brasil X R. Paris,-22.864467,-43.248167,-1.0
000147,Av. Brasil X AV. BRIGADEIRO TROMPOWSKI,-22.847789,-43.246994,-1.0
000148,Av. Brasil X Av. Lobo Junior,-22.826687,-43.275307,-1.0
000149,Av. Brasil X Washington Luiz,-22.815594,-43.288689,-1.0
000150,Prefeitura CASS,-22.911171,-43.205686,-1.0
000151,Av. Braz de Pina X Rua Jacarau - Brt,-22.837788,-43.288355,-1.0
000152,Av. Brasil X Automovel Clube,-22.82909,-43.345501,-1.0
000153,Av. Brasil X Altura R. João Paulo,-22.832516279999997,-43.354100159999994,-1.0
000154,Av. Brasil X Altura Deodoro,-22.852733,-43.393271299999995,-1.0
000155,Av. Brasil X Altura Estr. Do Engenho Novo - FIXA,-22.865242170000002,-43.427131589999995,-1.0
000156,Av. Brasil x Santíssimo,-22.860384,-43.507898,-1.0
000157,Av. Brasil X Alt. Km 42 -  Mendanha,-22.861377,-43.541479,-1.0
000158,Av. Brasil x Entrada de Santa Cruz,-22.893129,-43.67449199,-1.0
000159,Estr. Do Mendanha X Lgo. da Maçonaria - FIXA,-22.888427,-43.559933,-1.0
000160,Av. Cesario de Melo X Estr. Do Monteiro,-22.907507,-43.565812,-1.0
000161,Linha Vermelha - Km 1 X Pista Superior,-22.890386,-43.223166,-1.0
000162,Linha Vermelha - Km 1 X Pista Inferior,-22.89458,-43.219829,-1.0
000163,Linha Vermelha - Km 3 X Caju,-22.872547,-43.232014,-1.0
000164,Linha Vermelha - Km 4 X Linha Amarela,-22.861485,-43.236716,-1.0
000165,Linha Vermelha - Km 5 X Batalhão da Maré,-22.853686,-43.239451,-1.0
000166,Linha Vermelha Km 7.5 X Ilha do Governador,-22.8389916,-43.2418392,-1.0
000167,Linha Vermelha - Km 14 X Rodovia Washington Luiz,-22.807437,-43.288879,-1.0
000168,Av. Braz de Pina X Av. Vicente de Carvalho - Brt,-22.839228,-43.296019,-1.0
000169,AV. BRASIL ALTURA DA LINHA VERMELHA,-22.885541189999998,-43.2263193,31.0
000170,Av. Brasil  Altura Do Cemitério Do Caju,-22.888791,-43.218612,-1.0
000171,R. Conde de Bonfim X R. José Higino,-22.930045,-43.237439,-1.0
000173,Av. Brasil X Gae,-22.887381,-43.23121999999999,-1.0
000174,Av. das America X Novo Leblon,-23.000582,-43.382231,-1.0
000175,R. São Francisco Xavier X R. General Canabarro,-22.916124,-43.227038,-1.0
000176,VIADUTO AGENOR  DE OLIVEIRA,-22.90517,-43.241737,-1.0
000178,Viaduto Oduvaldo Cozzi  x São Francisco Xavier,-22.910702,-43.224346,-1.0
000179,Av. Vicente de Carvalho X Rua Caroem - Brt,-22.842347,-43.299856,-1.0
000181,Av. Chile X R. Do Lavradio,-22.910088,-43.183019,-1.0
000182,"R. São Clemente, 398",-22.951254900000002,-43.194478180000004,-1.0
000183,Av. Paulo de Frontin X R. Joaquim Palhares,-22.912748,-43.209633,-1.0
000184,Av. Vicente de Carvalho X Rua Fláminia - Brt,-22.845981,-43.302541,-1.0
000185,R. Eng. Mario de Carvalho X Av. Pst Martin Luther King Jr - Brt,-22.852261,-43.3158,-1.0
000186,R. Eng. Mario de Carvalho X R. Luiza de Carvalho - Brt,-22.852568,-43.319641,-1.0
000187,Av. Edgar Romero X Av. Vicente de Carvalho - Brt,-22.856806,-43.329207,-1.0
000188,Av. Ministro Edgard Romero X R. Leopoldino de Oliveira - Brt,-22.865075,-43.334341,-1.0
000189,Vd. Pref. Negrão de Lima X Estação Brt Madureira - FIXA,-22.877333,-43.336211,-1.0
000190,R. Candido Benicio X R. Capitão Menezes - Brt,-22.892254,-43.348311,-1.0
000191,R. Candido Benicio X R. Baronesa - Brt,-22.896962,-43.351732,-1.0
000192,R. Candido Benicio X Brt Ipase,-22.904349,-43.356801,-1.0
000193,R. Candido Benicio X R. Godofredo Viana - Brt,-22.912524,-43.360592,-1.0
000194,Tom Jobim,-22.987883,-43.19432,-1.0
000195,Av. Nelson Cardoso X Estr. Do Cafunda - Brt,-22.91846,-43.36533,-1.0
000196,Estr. dos Bandeirantes X R. André Rocha - Brt,-22.929257,-43.373999,-1.0
000197,Estr. dos Bandeirantes X Estação Brt Divina Providência,-22.9439869,-43.37231498,-1.0
000198,Estr. dos Bandeirantes X R. Soldado José da Costa - Brt,-22.958017,-43.381144,-1.0
000199,R. São Clemente 226 Botafogo,-22.949809,-43.189867,19.0
000200,Estr. Cel. Pedro Corrêa X Estação Brt Pedro Corrêa,-22.967397,-43.390732,-1.0
000201,R. Haddock Lobo X Av. Paulo de Frontin,-22.917126,-43.210312,-1.0
000202,R. São Luiz Gonzaga,-22.89385694,-43.239359269999994,-1.0
000203,Av. Pres. Vargas -  Alt. Dos Correios,-22.90951664,-43.20381032,10.0
000204,R. PRIMEIRO DE MARÇO X R. DO OUVIDOR,-22.902447,-43.175917,-1.0
000205,R. Do Riachuelo X Av. Henriques Valadares,-22.913002,-43.191236,-1.0
000206,R. Bela X Campo de São Cristóvão (Embaixo da Linha Vermelha),-22.895548,-43.219326,-1.0
000207,R. México X Av. Nilo Peçanha,-22.906449,-43.176181,-1.0
000209,R. Gen. Herculano Gomes X  R.Alm. Baltazar,-22.909103929999997,-43.22229401999999,-1.0
000210,Av. Beira Mar X Alt. Hotel Glória,-22.922508,-43.172525,-1.0
000211,R. São Cristóvão X R. Francisco Eugênio,-22.906993,-43.217919,-1.0
000212,Av. Rio Branco X R. Evaristo da Veiga,-22.909565,-43.176126000000004,-1.0
000213,Av. Passos X Av. Pres. Vargas,-22.902976,-43.183893,-1.0
000214,R. Santa Alexandrina X R. da Estrela,-22.925058,-43.208885,-1.0
000215,Av. Brasil X R. Monsenhor Manuel Gomes - Cemitério Do Caju,-22.888986,-43.216875,-1.0
000216,Av. Brasil X Acesso Ponte Rio/niterói - Caju,-22.889542,-43.219092,-1.0
000217,R. Alm. Mariath X Av. Rio de Janeiro,-22.89275,-43.214221,38.0
000218,Into X Av. Brasil,-22.892544,-43.216696,-1.0
000219,Av. Presidente Vargas x alt. Sambódromo - Sent. Praça da Bandeira,-22.907542,-43.199565,-1.0
000220,Av. Alm. Barroso X Av. Graça Aranha,-22.907556,-43.174821,-1.0
000221,R. Benedito Hipólito X R. Carmo Neto,-22.909147,-43.200377,-1.0
000222,R. Frei Caneca X R. Heitor Carrilho,-22.914365,-43.199465,-1.0
000223,R. Salvador de Sá X R. Carmo Neto,-22.912419,-43.199433,-1.0
000224,R. Mem de Sá X R. de Santana - FIXA,-22.911104,-43.192409,-1.0
000225,Praça da Cruz Vermelha,-22.91222,-43.188301,-1.0
000226,R. Benedito Hipolito X R. Santana,-22.90737878,-43.19426186,-1.0
000228,Praça da República X R. Vinte de Abril,-22.908966,-43.18871,-1.0
000229,Av. Pedro Ii X R. São Cristóvão,-22.905056,-43.217854,-1.0
000230,R. São Luiz Gonzaga X Campo de São Cristóvão,-22.89962,-43.223047,-1.0
000231,R. Sen. Bernado Monteiro X Rua Ana Neri,-22.899126,-43.240557,-1.0
000232,R. Equador X Alt. da Saida dos Onibus,-22.89847963,-43.2072684,-1.0
000234,Linha Vermelha. Alt. Do Caju,-22.883974,-43.228551,-1.0
000235,Av. Borges de Medeiros X R. Saturnino de Brito,-22.966504,-43.216696,30.0
000236,R. Cosme Velho X Igreja S. Judas Tadeu,-22.940188,-43.198325,-1.0
000237,R. Cmte Garcia Pires x R. Equador,-22.90009425,-43.20830771999999,61.0
000238,Av. Infante D. Henrique X R. Ferreira Viana,-22.928182,-43.171942,-1.0
000239,R. Visconde de Albuquerque X R. Leôncio Corrêa,-22.98322,-43.228159,-1.0
000240,R. Mena Barreto X R. Real Grandeza,-22.956816,-43.191987,-1.0
000241,"Av. Niemeyer, 393 - São Conrado - FIXA",-22.999332,-43.24781,-1.0
000242,R. Jardim Botanico X R. Maria Angélica,-22.960657339999997,-43.20797045,-1.0
000243,Av. Borges de Medeiros X R. Lineu de Paula Machado,-22.962938,-43.211589,-1.0
000244,Av. Vieira Souto X R. Garcia D´ávila,-22.986178,-43.209329,-1.0
000245,Av. Delfim Moreira X Av. Niemeyer,-22.989077,-43.227988,-1.0
000246,Av. Niemeyer X Av. Pres. João Goulart,-22.9949,-43.234745,-1.0
000247,Av. Presidente Vargas X R. Uruguaiana,-22.902296,-43.181304,-1.0
000248,Monumento Chafariz das Saracurunas,-22.984373,-43.223144,-1.0
000249,R. Gilberto Cardoso X Av. Afrânio de Melo Franco,-22.979009,-43.218498,-1.0
000250,Rua Marquês de São Vicente X R. Vice-Gov. Rubens Berardo - FIXA,-22.976922,-43.23055,-1.0
000251,Av. Niemeyer. Altura Do Vips,-23.000165489999997,-43.241597479999996,-1.0
000252,R. Bulhões de Carvalho X R. Francisco Sá,-22.98375,-43.194079,-1.0
000253,R. Bulhões de Carvalho X R. Francisco Otaviano,-22.987207,-43.191612,-1.0
000254,R. Miguel Lemos X R. Barata Ribeiro,-22.977439,-43.192835,-1.0
000255,R. Tonelero X R. Figueiredo Magalhães,-22.968163,-43.187943,-1.0
000256,Av. Atlântica x R Bolivar - FIXA,-22.9758993,-43.18782909,-1.0
000257,Av. Atlântica X R. Anchieta,-22.963323,-43.170004,-1.0
000258,R. Gal. Polidoro X R. Paulo Barreto,-22.956348,-43.185979,-1.0
000259,Av. Borges Medeiros X Altura Do Parque dos Patins,-22.970898,-43.217291,-1.0
000260,R. Voluntários da Pátria X R. Nelson Mandela,-22.951251,-43.184273,-1.0
000261,R. Voluntários da Pátria X R. Dona Mariana,-22.953172,-43.188536,50.0
000262,R. São Clemente X R. Guilhermina Guinle,-22.94962,-43.188759,19.0
000263,Praia de Botafogo X R. Prof. Alfredo Gomes,-22.947694,-43.182621,-1.0
000264,AV. DAS NAÇÕES UNIDAS X ALT. BOTAFOGO PRAIA SHOPPING - FIXA,-22.948139,-43.182033,-1.0
000265,R. Humberto de Campos X Av. Bartolomeu Mitre,-22.982338,-43.223948,-1.0
000266,R. das Laranjeiras X Praça David Ben Gurion,-22.93817201,-43.1906269,-1.0
000267,Auto Est. Lagoa Barra,-22.992613,-43.251731,8.0
000268,R. Do Catete  X R. das Laranjeiras,-22.931059,-43.177708,36.0
000269,R. Real Grandeza  X R. Gal Polidoro,-22.958034,-43.191192,-1.0
000270,R. Visconde de Pirajá X Av. Henrique Dumont,-22.983701,-43.213552,-1.0
000271,Monumento Estacio de Sá,-22.939968,-43.169843,-1.0
000272,R. Visc. de Pirajá X R. Teixeira de Melo (Pça. Gal. Osório),-22.984649,-43.198693,-1.0
000273,R. Visconde de Pirajá X R. Vinícius de Moraes,-22.984552,-43.202878,-1.0
000274,R. Barão Do Flamengo X R. Sen. Vergueiro,-22.932943,-43.177009999999996,-1.0
000275,Corte de Cantagalo,-22.976522,-43.198178,-1.0
000276,Av. Vieira Souto X R. Vinícius de Moraes,-22.986577,-43.203073,-1.0
000277,Rua Barata Ribeiro X R. Prado Junior,-22.962256,-43.176012,-1.0
000278,R. Tonelero X R. Siqueira Campos,-22.967156,-43.18628999999999,2.0
000279,R. Mena Barreto X R. Dª Mariana,-22.954951,-43.187384,-1.0
000280,R. Humaitá X R. Voluntários da Pátria,-22.956259,-43.198028,-1.0
000281,R. Prudente de Morais X R. Anibal de Mendonça,-22.984847,-43.211492,-1.0
000282,Av. N. Sra. de Copacabana X R. Hilário de Gouveia,-22.968746,-43.183737,-1.0
000283,AV Nossa Senhora de Copacabana X Republica no Peru,-22.967393079999997,-43.18194752,-1.0
000284,Av. N. Sra. de Copacabana X R. Rodolfo Dantas,-22.966257,-43.178962,-1.0
000285,Av. Gal. San Martin X Av. Afrânio de Melo Franco,-22.984728,-43.217651,-1.0
000286,Av. N. Sra. de Copacabana X R. Prado Junior,-22.964232,-43.174949999999995,-1.0
000287,Av. N. Sra. de Copacabana X Av. Rainha Elisabeth,-22.984856,-43.190283,-1.0
000288,Av. N. Sra. de Copacabana X R. Francisco Sá,-22.98293,-43.190882,-1.0
000289,Av. N. Sra. de Copacabana X R. Sá Ferreira,-22.980866,-43.191258,-1.0
000290,Av. N. Sra. de Copacabana X R. Constante Ramos,-22.974051,-43.189123,-1.0
000291,Av. Atlântica X R. Rep. Do Peru - FIXA,-22.969131,-43.180741,-1.0
000292,Av. Atlântica X R. Siqueira Campos,-22.970583,-43.183404,-1.0
000293,Av. Atlântica X R. Miguel Lemos - FIXA,-22.97817912,-43.188562399999995,-1.0
000294,R. Barata Ribeiro X R. Santa Clara,-22.970376,-43.188329,-1.0
000295,Av. N. Sra. de Copacabana X R. Miguel Lemos,-22.977952,-43.190786,-1.0
000296,R. Barata Ribeiro X R. Rodolfo Dantas,-22.964755,-43.179553,-1.0
000297,R. São Clemente X R. Sorocaba,-22.950095,-43.190989,-1.0
000298,R. Epitacio Pessoa X R. Vinicius de Morais,-22.979536,-43.202644,3.0
000299,Praia de Botafogo X R. Visc. de Ouro Preto,-22.946188,-43.182567,-1.0
000300,Praia de Botafogo X R. São Clemente,-22.949047,-43.182428,-1.0
000301,Av. Gal. San Martin X R. João Lira - FIXA,-22.985222,-43.222071,-1.0
000302,R. Muniz Barreto X R. Marques de Olinda,-22.943791,-43.183737,57.0
000303,R. Muniz Barreto X R. Alfredo Gomes,-22.947813,-43.184209,-1.0
000304,R. Cosme Velho X Acesso Túnel Rebouças,-22.939691,-43.202062,-1.0
000305,Av. Pasteur X Alt. Instituto Benjamim Constant,-22.953009,-43.172418,-1.0
000306,Av. Pasteur X R. Venceslau,-22.95134,-43.175154,-1.0
000307,Av. Rui Barbosa X Alt. Instituto Fernandes Figueira,-22.942423,-43.174134,-1.0
000308,Praia Do Flamengo X Av. Oswaldo Cruz - FIXA,-22.938604,-43.173695,-1.0
000310,Largo do Machado x Bento Lisboa,-22.930591,-43.179231,-1.0
000311,Praia Do Flamengo X R. Dois de Dezembro,-22.930077,-43.174478,-1.0
000312,R. Pedro Américo X R. do Catete,-22.923635,-43.177375,55.0
000313,R. Do Catete X R. Silveira Martins,-22.925769,-43.176602,1.0
000314,Praia Do Flamengo X R. Ferreira Viana,-22.927656,-43.173941,-1.0
000315,R. da Glória X R. Benjamim Constant,-22.920482,-43.177031,-1.0
000316,Av. Infante D. Henrique X R. Teixeira de Freitas,-22.914919,-43.174628,-1.0
000317,Av. Infante D. Henrique X Alt. da Marina da Glória,-22.918476,-43.174424,-1.0
000318,R. Gal. Polidoro X R. da Passagem,-22.952119999999997,-43.182288,-1.0
000319,R. da Passagem X R. Arnaldo Quintela,-22.954515619999995,-43.181123819999996,-1.0
000320,"Praça Vereador Rocha Leão, 50 -  FIXA",-22.964554609999997,-43.19058381999999,-1.0
000321,R. Prudente de Morais X R. Teixeira de Melo,-22.985582,-43.198693,-1.0
000322,R. Gal. Severiano X Pça. Ozanan,-22.95318721,-43.177433969999996,-1.0
000323,R. Constante Ramos X R. Pompeu Loureiro,-22.972322,-43.191944,-1.0
000324,R. Pompeu Loureiro X R. Bolivar,-22.975532,-43.193532,-1.0
000325,R. Visc. Silva X Largo Do Ibam,-22.958226,-43.196848,-1.0
000326,R. Jardim Botanico X R. Prof. Saldanha - FIXA,-22.96144335,-43.204861689999994,11.0
000327,R. Do Humaitá X R. Eng. Marques Porto,-22.959559,-43.201096,-1.0
000328,Auto Estr. Lagoa-Barra X Est. da Gávea,-22.99236313,-43.25165276,-1.0
000329,Auto Estr. Lagoa-Barra X Alt. Gávea Golf Clube,-22.99805801,-43.267325129999996,-1.0
000330,R. Prudente de Morais X R. Maria Quiteria,-22.985163,-43.207175,-1.0
000331,Av. Epitacio Pessoa X Alt. Do Parque da Catacumba,-22.973053,-43.203244,78.0
000332,R. Adalberto Ferreira X R. Cupertino Durão,-22.981409,-43.22117,-1.0
000333,R. Conde de Bonfim X R. Almirante Cochrane,-22.923061,-43.231072,-1.0
000334,R. Conde de Bonfim X R. São Francisco Xavier,-22.921915,-43.221416,-1.0
000335,Rua Conde de Bonfim X Rua Pinto Figueiredo,-22.925631,-43.23494,-1.0
000336,Predio Ipiranga,-22.908225,-43.219909,-1.0
000337,R. Barão de Mesquita X R. José Higino,-22.924237,-43.240396,-1.0
000338,Rua Barão de Mesquita X Rua Paula Brito,-22.923931,-43.251908,-1.0
000339,R. São Francisco Xavier X Av. Prof. Manoel de Abreu,-22.913763,-43.234355,32.0
000340,R. São Francisco Xavier  X  Av. Maracanã,-22.916144,-43.22986,-1.0
000341,R. Haddock Lobo X R. Engenheiro Adel,-22.92050585,-43.21674664,14.0
000342,Rua Visc. de Santa Izabel X Barão de São Francisco,-22.916006,-43.2515,-1.0
000343,Estr. Velha da Tijuca X Av. Édson Passos,-22.951419,-43.260502,-1.0
000344,Rua Conde de Bonfim X R. Radmaker,-22.934418909999998,-43.243114479999996,-1.0
000345,Av. Maracanã X Mata Machado,-22.912302,-43.22663,-1.0
000346,Buraco Do Lacerda - Jacaré,-22.887313,-43.252536,-1.0
000347,Av. Maracanã X R. José Higino,-22.928457,-43.239731,-1.0
000348,Rua Boa Vista X Av. Édson Passos,-22.960498,-43.269975,-1.0
000349,Rua Uruguai  X Av. Maracanã,-22.9304736,-43.24212,-1.0
000350,R. Torres Homem X R. Sousa Franco,-22.913958,-43.2462,-1.0
000351,Grajaú-Jacarepaguá (Subida Grajaú),-22.916935,-43.262422,-1.0
000352,R. Teodoro da Silva X R. Sousa Franco,-22.917582,-43.245506,-1.0
000353,R. Teodoro da Silva X R. Gonzaga Bastos,-22.916767,-43.241801,-1.0
000354,R. Professor Manoel de Abreu X R. Felipe Camarao,-22.915699,-43.235321,-1.0
000355,Av. Maracanã X R. Major Ávila,-22.919689,-43.233926,-1.0
000356,Boulevard 28 de Setembro X Pça Barão de Drumond,-22.916451,-43.250029999999995,-1.0
000357,Boulevard 28 de Setembro X R. Gonzaga Bastos,-22.915393,-43.242037,-1.0
000358,R. Professor Eurico Rabelo X R. Rad. Valdir Amaral,-22.912127,-43.233954,-1.0
000359,R. São Francisco Xavier X R. Luiz de Matos,-22.910967,-43.238104,-1.0
000360,R. São Francisco Xavier X R. Mariz E Barros,-22.918061,-43.224431,-1.0
000361,R. Mariz E Barros X R. Campos Sales,-22.914306,-43.219056,-1.0
000362,R. Teixeira Soares X R. Pará X R. Paraíba,-22.91119,-43.216786,-1.0
000363,Av. Brasil X Trevo das Margaridas,-22.82214057,-43.31976235,-1.0
000364,R. Visconde de Santa Isabel X R. Alexandre Calaza,-22.916885,-43.260158,-1.0
000365,R. Dr. Satamini X R. Campos Sales,-22.918308,-43.217307,46.0
000366,R. Pereira Nunes X R. Baltazar Lisboa,-22.922062,-43.237368,-1.0
000367,R. Mariz E Barros X R. Felisberto de Menezes - FIXA,-22.912639,-43.215954,-1.0
000368,R. Conde de Bonfim X R. Basileia - FIXA,-22.938841,-43.247659,-1.0
000369,R. Conde de Bonfim X R. dos Araújos - FIXA,-22.925154,-43.225606,-1.0
000370,R. Almirante Cochrane X R. Pareto,-22.921968,-43.230195,-1.0
000372,R. Cachambi X R. Getúlio,-22.888185,-43.275501,-1.0
000373,Av. D. Helder Câmara X R. da Abolição,-22.884797,-43.298447,-1.0
000374,R. Ana Neri X R. Do Rocha,-22.900856,-43.248292,-1.0
000375,Av. D. Helder Câmara X Estr. Ademar Bebiano X R. Domingo Bastos,-22.878053,-43.264471,-1.0
000376,Rua 24 de Maio X R. Marechal Bitencourt,-22.902513,-43.256389999999996,-1.0
000377,Av. Mal. Rondon X Viaduto Procurador José Alves de Moraes,-22.903787,-43.259819,-1.0
000378,Av. Amaro Cavalcante X Estação Ferroviaria Do Engenho de Dentro,-22.895729,-43.294817,-1.0
000379,Av. Pastor Martin Luther King X R. Alvaro de Miranda,-22.874468,-43.286379999999994,-1.0
000380,R. Arquias Cordeiro x R. Coração de Maria - FIXA,-22.899044569999997,-43.28062217,-1.0
000381,R. Aristides Caire X R. Capitão Rezende,-22.895291,-43.274074,-1.0
000382,Av. Dom Helder Camara x R. Pedras Altas X R. Silva Mourão - Fixa,-22.88668057,-43.28010564,-1.0
000384,R. Dias da Cruz X R. Vilela Tavares,-22.904789,-43.288912,-1.0
000385,R. Guilhermina X R. Goiás,-22.895193,-43.301142,-1.0
000386,Parque de Madureira Palco Praça Do Samba,-22.867973529999997,-43.341190579999996,-1.0
000387,R. Clarimundo de Melo X R. Manuel Vitorino,-22.895915,-43.302265,-1.0
000388,R. Hemengarda x Joaquim Meier,-22.903837,-43.278715,-1.0
000389,Parque de Madureira,-22.86537704,-43.343914489999996,-1.0
000390,Parque Madureira - Predio da Administração,-22.86391126,-43.345628479999995,-1.0
000391,R. Piaui X R. Dr. Padilha,-22.891867,-43.287808,-1.0
000392,D.Helder Camara x R. Cachambi - FIXA,-22.88488391,-43.27794905,-1.0
000393,R. Hemengarda X R. Lins de Vasconcelos,-22.906716,-43.276305,-1.0
000394,R. Dias da Cruz X R. Magalhaes Couto,-22.903605,-43.284321,-1.0
000395,R. Medina X R. Silva Rabelo,-22.899907,-43.281401,-1.0
000396,Parque de Madureira - Pista de Skate - FIXA,-22.862396079999996,-43.34684248,-1.0
000397,Parque Madureira - Quadras - FIXA,-22.86162286,-43.34668336,-1.0
000398,R. Domingos Lopes X R. Maria Lopes - FIXA,-22.87964422,-43.34171859999999,-1.0
000399,Estr. Ademar Bebiano X R. Darke de Matos (Sob Linha Amarela),-22.872755,-43.267883,-1.0
000400,Av. Itaóca X Estr. Do Itararé,-22.867021,-43.270007,-1.0
000401,R. Vinte E Quatro de Maio X R. Lins de Vasconcelos,-22.904344,-43.272722,-1.0
000403,Grajaú-Jacarepaguá 2,-22.916816,-43.277206,-1.0
000404,Estrada Do Galeão X Alt. Rua Vinte de Janeiro,-22.822964,-43.230965,-1.0
000405,Abelardo Bueno - Em Frente 3600,-22.97315994,-43.39799721,-1.0
000406,Abelardo Bueno X R. Jorge Faraj,-22.972959,-43.392742,-1.0
000407,R. CARDOSO DE MORAES X RUA DONA ISABEL,-22.865914,-43.255459,-1.0
000408,R. Uranos X R. Euclides de Faria (Estação Ferroviária de Ramos),-22.853972,-43.261671,-1.0
000409,Av. dos Democráticos X R. Uranos,-22.866093,-43.255814,-1.0
000410,R. Abelardo Bueno X R. Arroio Pavuna,-22.973264,-43.378744,-1.0
000411,R. Cel. Pedro Correia X R. Aroazes,-22.970977,-43.388803,-1.0
000412,Av. Nova York X Av. Bruxelas,-22.865291,-43.252775,-1.0
000413,R.JOSÉ MAURICIO X ESTAÇÃO DA PENHA,-22.841059,-43.276734,-1.0
000414,Av. Teixeira de Castro X R. Barreiros,-22.853566,-43.252155,-1.0
000415,R. Cardoso de Moraes X R. Teixeira de Castro X R. Bonsucesso,-22.86275,-43.253951,-1.0
000416,R. Leopoldina Rego X Viad. de Ramos,-22.852548,-43.261778,-1.0
000417,R. Nicarágua X R. Montevidéu,-22.839921,-43.278148,-1.0
000418,R. Leopoldina Rego X R. Dr. Alfredo Barcelos,-22.847387,-43.265759,-1.0
000419,Av. Lobo Junior X Rua Cuba,-22.829115,-43.277078,-1.0
000420,Rua Bento Cardoso x Rua Irapua,-22.8360719,-43.2883229,-1.0
000421,Linha Vermelha Alt. da Av. Brigadeiro Trompowski,-22.842977,-43.238479,-1.0
000422,Av. Brasil X Fiocruz,-22.875806,-43.242918,-1.0
000423,R. Leopoldo Bulhões Alt. da Linha Amarela,-22.871603,-43.253429,-1.0
000424,Rua Paranapanema X Rua Antônio Rêgo,-22.852311,-43.269782,-1.0
000425,Av. Brasil X Rua Teixeira Ribeiro,-22.856187,-43.247679999999995,-1.0
000426,Estr. Do Engenho da Pedra X Rua Luiz Câmara,-22.845598,-43.257229,-1.0
000427,Estr. Do Galeão. Próximo À R. República Árabe da Síria,-22.805618,-43.210784,-1.0
000428,Av. Paranapuã X Rua Capanema,-22.795282,-43.182728,-1.0
000429,Estr. Do Galeão X Estr. Do Cacuia,-22.812007,-43.191655,-1.0
000430,AV.BRASIL X R. FILOMENA NUNES,-22.836912,-43.258611,-1.0
000431,Estr. Do Galeão X Av. Mto Paulo E Silva,-22.803511,-43.203864,-1.0
000432,Linha Vermelha X Hospital Universitário (Ufrj),-22.842696,-43.238659,-1.0
000433,Linha Vermelha X Alt. do Rio Galeão,-22.828917,-43.249011,-1.0
000434,Av. Brasil X R. do Alpiste,-22.823003769999996,-43.27901392,-1.0
000435,Linha Vermelha X Próximo A Br-040,-22.811947,-43.270469,-1.0
000436,Linha Vermelha X Alt. R. Bulhões Marcial,-22.800415,-43.305295,-1.0
000437,Av. Brasil x Estação Parada de Lucas,-22.815923,-43.300917,-1.0
000438,Av. Meriti X Estr. da Água Grande X R. Cordovil,-22.824813,-43.312290000000004,-1.0
000440,Av. Brasil X Estr. Rio Do Ouro,-22.834494,-43.360355,-1.0
000442,Av. Vicente de Carvalho X Av. Meriti,-22.850397,-43.309662,-1.0
000443,Av. Martin Luther  X Av. Vicente de Carvalho,-22.853322,-43.313861,-1.0
000444,Av. Monsenhor Félix X Praça Nossa Senhora da Apresentação,-22.831903,-43.328447,-1.0
000446,Av. Sargento de Milícias X R. Sargento Fernandes Fontes,-22.805722,-43.366053,-1.0
000447,Av. dos Italianos X R. dos Topázios,-22.852686,-43.349605,-1.0
000448,Rua Salvador Allende X Pedro Calmon,-22.978582049999996,-43.40781010999999,-1.0
000450,Av. Pastor Martin Luther King Jr. X Av. Monsenhor Felix - FIXA,-22.847071,-43.324671,-1.0
000451,Av. Brás de Pina X R. Pe. Roser X Av. Meriti (Largo Do Bicão) - FIXA,-22.839329,-43.311646,-1.0
000452,Av. Dom Hélder Câmara X R. Pde Manoel da Nóbrega,-22.885049,-43.310734,-1.0
000453,Rodovia Pres. Dutra X Linha Vermelha,-22.803363,-43.347073,-1.0
000454,Estr. Intendente Magalhães X R. Henrique de Melo - FIXA,-22.879062,-43.356686,-1.0
000455,Av. Ernani Cardoso X Alberto Silva,-22.882581,-43.337642,-1.0
000456,R. Candido Benicio X Estrada Intendente Magalhães - FIXA,-22.883024879999997,-43.34265525,-1.0
000457,Av. Ernani Cardoso X R. Padre Telêmaco - FIXA,-22.882067,-43.33202,-1.0
000458,Av. D. Helder Câmara X R. Cer. Daltro - FIXA,-22.882165379999996,-43.32467071,-1.0
000459,R. Carvalho de Souza X R. Francisco Batista,-22.876047,-43.334839,-1.0
000460,Av. Ministro Edgard Romero X R. Conselheiro Galvão,-22.87229,-43.336387,-1.0
000461,R. João Vicente X R. Padre Manso,-22.876887,-43.337073,-1.0
000462,Estr. Do Portela X R. Firmino Fragoso - FIXA,-22.87055933,-43.34197092,-1.0
000463,Av. M. Edgard Romero X R. Leopoldino de Oliveira,-22.86541,-43.334262,-1.0
000464,Rua Salvador Allende X Próx. Olof Palme,-22.982722,-43.410896,-1.0
000465,Av. das Américas X Av. Guignard,-23.011278,-43.453834,-1.0
000466,Av. das Américas X Shopping Recreio,-23.020528,-43.490238,-1.0
000467,Av. das Américas X Av. Cândido Portinari (Alt. Do Ribalta),-22.999444,-43.408248,-1.0
000468,Av. Ayrton Senna X Cidade da Arte,-23.003793639999998,-43.366132439999994,-1.0
000469,Av. Lucio Costa - Eco Orla - Altura Do Retorno,-23.010959,-43.370644,-1.0
000470,Av. Lucio Costa - Eco Orla - Altura Do Clube Blue,-23.015314,-43.411231,-1.0
000471,AV.SALVADOR ALLENDE X R.ABRAHÃO JABOUR,-22.972964,-43.403281,-1.0
000472,Av. das Américas X Altura Do Colégio Notre Dame,-23.020222,-43.501439,-1.0
000473,AV. DAS AMÉRICAS x AV JEAN POUL X  R. PROF. ALFREDO COLOMBO,-23.000408739999997,-43.38869271,-1.0
000474,Av. Lucio Costa X Av. Do Contorno  - FIXA,-23.022384,-43.447999,-1.0
000475,Av. Alfredo Baltazar da Silveira X R. Glaucio Gil - FIXA,-23.022315,-43.458213,-1.0
000476,Av. Lucio Costa X R. Glaucio Gil  - FIXA,-23.024902,-43.457215,-1.0
000480,Estr. da Barra da Tijuca,-23.005887859999998,-43.30417465,-1.0
000481,Filadelfo de Azevedo X R. Dom Rosalvo Costa,-22.993225,-43.303188,-1.0
000482,Av. Min. Ivan Lins X Altura da Ponte da Joatinga,-23.012498,-43.29918299,4.0
000483,Estrada Do Pontal Em Frente Ao N.º 6870 - FIXA,-23.03024991,-43.47844879,-1.0
000484,Av. das Américas X Av. Salvador Allende,-23.006372869999996,-43.43713414,-1.0
000485,Av. das Américas X Estr. Benvindo de Novais,-23.013876,-43.463029999999996,-1.0
000486,Av. das Américas X Estr. dos Bandeirantes,-23.01086,-43.518691,-1.0
000487,Av. Gilka Machado X Estr. Do Pontal - FIXA,-23.031018,-43.471851,-1.0
000488,Rua Olof Palm X Abraão Jabour,-22.978317,-43.416542,-1.0
000489,Av. das Américas X Pedra de Itaúna,-23.003849,-43.425511,-1.0
000490,Av. Salvador Allende (Rio Centro),-22.981034,-43.409686,-1.0
000491,Av. Lúcio Costa (Reserva),-23.012598,-43.39385,-1.0
000492,Estr. Mal. Miguel Salazar Mendes de Morais X Av. Antonieta Campos da Paz,-22.941134,-43.366921,-1.0
000493,Estr. de Jacarepaguá X R. Tirol,-22.94144,-43.34114999999999,-1.0
000494,Grajaú - Jacarepaguá Km 4,-22.925462369999998,-43.28884119999999,-1.0
000495,R. Tirol X R. Cmte Rubens Silva - FIXA,-22.9397819129247,-43.336701072506095,-1.0
000496,Estr. Mal. Miguel Salazar Mendes de Morais X R. Edgard Werneck,-22.947130289999997,-43.3601843,-1.0
000497,Est. Cel. Pedro Corrêa X Est. dos Bandeirantes,-22.960245,-43.389772,-1.0
000498,Av. Cesário de Mello X R. Adolfo Lemos,-22.913834,-43.59748,-1.0
000499,R. Candido Benício X R. Florioanópolis,-22.900446,-43.354068,-1.0
000500,Av. Cesário de Mello X Rua Morango,-22.910571,-43.58346,-1.0
000502,Av. Cesario de Mello X R. Antares,-22.923601,-43.648603,-1.0
000503,Av. Nelson Cardoso X R. Bacairis,-22.921718,-43.371212,-1.0
000504,R. Bacairis X R. Apiacás - FIXA,-22.920986,-43.371674,-1.0
000505,Estr. Do Tindiba X R. Caviana,-22.918555,-43.376051,-1.0
000506,Estr. dos Bandeirantes X R. André Rocha,-22.928654,-43.373423,-1.0
000507,Av. Geremário Dantas X Estr. Do Tindiba,-22.928862,-43.354207,-1.0
000508,Estr. dos Bandeirantes X Estr. Mal. Miguel Salazar Mendes de Morais,-22.936243,-43.371427,-1.0
000509,Estr. dos Bandeirantes X Estr. Arroio Pavuna,-22.954205,-43.37602999999999,-1.0
000510,Estr. dos Bandeirantes X Av. Salvador Allende,-22.960586,-43.391780000000004,-1.0
000511,Estr. Do Tindiba X R. Lopo Saraiva,-22.927073,-43.360709,-1.0
000512,Av. Geremário Dantas X R. Edgar Werneck,-22.936213,-43.351901,-1.0
000513,Av. Geremário Dantas X Sob Linha Amarela,-22.93819,-43.349368,-1.0
000514,Av. Geremário Dantas X Estr. dos Três Rios (Pça. Profª Camisão),-22.93978,-43.343768,-1.0
000515,Estr. dos Três Rios X Estr. Do Bananal,-22.936381,-43.333275,-1.0
000516,Av. Cesário de Melo x Estada Santa Eugênia,-22.917014779999995,-43.633684349999996,-1.0
000517,Av. Cesário de Mello X Viaduto de Paciência,-22.915809,-43.628979,-1.0
000518,Estr. Do Mato Alto X Estr. Do Marmeleiro,-22.936435,-43.575701,-1.0
000519,Estr. Do Pau Ferro X Sob Linha Amarela,-22.927409,-43.342255,-1.0
000520,Estr. Do Pau Ferro X Estr. de Ganumbi,-22.932706,-43.330454,-1.0
000521,Estrada Do Gabinal X Estrada Ten. Cor. M. Aragão,-22.953414,-43.354926,-1.0
000522,Av. das Américas Após O Canal - Sentido Santa Cruz,-22.999535359999996,-43.58218638,-1.0
000523,Estr. Tenente Coronel Muniz de Aragão X Estr. de Jacarepaguá - FIXA,-22.94752956,-43.3396749,-1.0
000524,Estr. Do Bananal X R. Ituverava - FIXA,-22.94305,-43.331355,-1.0
000525,Estr. de Jacarepaguá X Estr.Do Engenho Dágua - FIXA,-22.955084,-43.337384,-1.0
000526,Estr. Do Tindiba X Pça Jauru,-22.916678,-43.377478,-1.0
000527,Estr. Do Tindiba X Estr. Meringuava,-22.914672,-43.380836,-1.0
000528,Estr. Do Cafundá X Estr. Meringuava - FIXA,-22.914204,-43.375713,-1.0
000529,Av. das Americas X Cetex,-22.999926,-43.356741,-1.0
000530,Estr. da Pedra X Rua. General Alexandre Barreto,-22.95125,-43.65034,-1.0
000531,Estr. Rodrigues Caldas X Estr. Do Outeiro Santo,-22.928753,-43.39281999999999,-1.0
000532,Buraco Do Padre,-22.9029945,-43.26851963,34.0
000533,R. André Rocha X R. Mal. José Beviláqua - FIXA,-22.92365833,-43.36903261,-1.0
000534,Estr. dos Bandeirantes X Olof Palm  - FIXA,-22.977804,-43.417239,-1.0
000535,Estr. dos Bandeirantes X Estr. da Curicica,-22.963194,-43.403485,-1.0
000536,Estr. dos Três Rios X R. Cmte Rubens Silva - FIXA,-22.93764629,-43.33728808,-1.0
000537,Avenida Alfredo Baltazar da Silveira x Rua Odilon Duarte Braga  - FIXA,-23.012000559999997,-43.44374711999999,-1.0
000538,Av. Engenheiro Sousa Filho X Av. Principal,-22.977777,-43.334086,-1.0
000539,Estr. de Jacarepaguá X Av. Eng. Sousa Filho,-22.964785,-43.335507,-1.0
000540,R. Bernardo de Vasconcelos X Estr. Canrobert da Costa,-22.878646,-43.423784,-1.0
000541,R. Almeida E Souza X R. Concórdia,-22.870563,-43.412233,-1.0
000542,Av. Duque de Caxias X R. João Vicente,-22.856082,-43.386195,-1.0
000543,Av. de Santa Cruz X Viaduto de Bangu,-22.875839,-43.470186,-1.0
000544,R. Min. Ary Franco X R. Sul América - FIXA,-22.873594,-43.464871,-1.0
000545,Av. de Santa Cruz X R. Francisco Real - FIXA,-22.877114,-43.445767,-1.0
000546,Rua Xavier Curado X Rua João Vicente,-22.859349999999996,-43.37486,-1.0
000547,Av. Brasil X Estr. da Equitação - FIXA,-22.862069,-43.411317,-1.0
000548,Av. Brasil X Restaurante Aldeias,-22.858247,-43.501137,-1.0
000549,Av. Brasil X R. Dra. Maria Estrela,-22.858707,-43.465337,-1.0
000550,R. Bernardo de Vasconcelos X Praça Do Canhão - FIXA,-22.876301,-43.430233,-1.0
000552,Rua Teixeira de Freitas,-22.914775,-43.175097,-1.0
000553,R. Francisco Real X R. Silva Cardoso - FIXA,-22.879715,-43.463489,-1.0
000554,R. da Feira X R. dos Açudes,-22.880188,-43.468802,-1.0
000555,Av. de Santa Cruz X R. Silva Cardoso,-22.875532,-43.463503,-1.0
000556,Av. Mal Fontenelle X Est. do Japoré,-22.876452,-43.372918,-1.0
000557,Av. de Santa Cruz X Estr. Do Realengo - FIXA,-22.877974,-43.441604,-1.0
000558,Estr. São Pedro de Alcântara X Vd. Cel. Magalhães Bastos,-22.867613,-43.412968,-1.0
000559,Av. Mal. Fontenelle X R. Almeida E Souza,-22.882284,-43.409815,-1.0
000560,Av. Duque de Caxias X R. São Sebastião,-22.859004,-43.388164,-1.0
000561,Av. Santa Cruz X R. Gal. Sezefredo - FIXA,-22.878107,-43.434836,-1.0
000563,Estr. Cel. Pedro Correia X Estr. dos Bandeirantes,-22.847496,-43.381544,-1.0
000564,R. Campo Grande X Alt. Estação Ferroviária de Campo Grande,-22.901756,-43.558879,-1.0
000565,Estr. Do Mendanha X Estr. da Posse,-22.885223,-43.556869,-1.0
000566,Estr. da Caroba X Estr. Rio-São Paulo,-22.896556,-43.558388,-1.0
000567,Av. Cesário de Melo X Alt. Do Calçadão de Campo Grande,-22.906044,-43.559783,-1.0
000568,Av. Cesário de Melo X R. Aurélio de Figueiredo,-22.904878,-43.556736,-1.0
000569,Av. Cesário de Melo X Av. Farroupilha,-22.907062,-43.574599,-1.0
000570,Estr. da Caroba X Av. Cesário de Melo,-22.897446,-43.54827,-1.0
000571,Av. Cesário de Melo X R. Artur Rios,-22.902388,-43.549064,-1.0
000572,Estr. Rio Do A X Estr. Rio São Paulo,-22.894372,-43.560072,-1.0
000573,Estr. Rio Do A X R. André Vesálio,-22.899808,-43.567003,-1.0
000574,R. Xavier Marques X R. Cel. Agostinho,-22.903889999999997,-43.559139,-1.0
000575,R. Engenheiro Trindade X R. Manai,-22.902945,-43.562672,-1.0
000576,R. Olinda Ellis X Alt. Centro Esportivo Miécimo da Silva - FIXA,-22.914183,-43.554338,-1.0
000577,Estr. da Cachamorra X R. Olinda Ellis - FIXA,-22.914464,-43.549955,-1.0
000578,Estr. Do Monteiro (Entre Estr. da Cambota E Estr. Iaraquã) - FIXA,-22.920631,-43.56299,-1.0
000580,Estr. Do Campinho X Estr. Santa Maria - FIXA,-22.894273,-43.584931,-1.0
000581,Estr. da Posse X Estr. Do Lameirão,-22.875938,-43.526329999999994,-1.0
000582,Av. de Santa Cruz X Estr. Do Pré,-22.89454,-43.53442,-1.0
000583,Av. Brasil X Estr. Rio-São Paulo,-22.868979,-43.596368,-1.0
000584,Estr. Do Mendanha X Av. Paulo Afonso,-22.86975,-43.554676,-1.0
000585,Av. Brasil X Estr. Do Pedregoso,-22.863522,-43.56430999999999,-1.0
000586,Av. de Santa Cruz X Estr. Do Lameirão,-22.884814,-43.519399,-1.0
000587,Estr. Do Campinho X Estr. Do Encanamento,-22.886432,-43.604469,-1.0
000588,R. Felipe Cardoso X Av. Cesário de Melo (Pça. Santa Cruz),-22.935591,-43.666942,-1.0
000589,R. Felipe Cardoso X Av. Isabel,-22.919718,-43.68197,-1.0
000590,R. Felipe Cardoso X Alt. Beco Macaé,-22.9218,-43.679875,-1.0
000591,R. Felipe Cardoso X Av. Engº Gastão Rangel,-22.92711,-43.678165,-1.0
000592,Av. das Américas X Estr. Do Magarça,-22.968628,-43.622761,-1.0
000594,"Rua Senador Camará, 207",-22.914262,-43.686219,-1.0
000595,R. D. João Vi X R. Senador Câmara,-22.915512,-43.684849,-1.0
000596,Av. Brasil X Estr. Do Campinho,-22.881187,-43.632492,-1.0
000597,Av. das Américas X Estr. da Matriz,-22.993953,-43.597012,-1.0
000598,Av. das Américas X Estr. Roberto Burle Marx,-23.004994,-43.560094,-1.0
000599,Av. das Américas X Estr. da Pedra,-22.964647,-43.647716,-1.0
000600,Uerj,-22.911703,-43.236397,-1.0
000601,Bartolomeu de Gusmão - Acesso Ao Maracanã,-22.909278,-43.226288,-1.0
000602,Conde de Bonfim X Alzira Brandão - FIXA,-22.924532,-43.224376,-1.0
000603,Hotel Marriot,-22.972456,-43.185366,-1.0
000604,Hotel Windsor,-22.964639999999996,-43.17323163,-1.0
000605,Hotel Sofitel,-22.985546,-43.189109,-1.0
000607,Hotel Ibis,-23.013758,-43.297972,-1.0
000610,Av. Embaixador Abelardo Bueno - Em Frente 73,-22.973735899999998,-43.40020533999999,-1.0
000611,Iperj,-22.901878,-43.182273,-1.0
000612,Av. Vieira Souto x R. Francisco Otaviano,-22.987883,-43.194503,-1.0
000613,Posto 7,-22.989201,-43.191494,-1.0
000614,R. Marcilio Dias X R. Bento Ribeiro,-22.902772,-43.191193,-1.0
000624,Av. Rodrigues Alves x Acesso de entrada do Edifício Garagem,-22.89842971,-43.209316779999995,-1.0
000625,Av. Francisco Bicalho x Comandante Garcia Pires,-22.90048049,-43.20980493999999,-1.0
000632,Terraço do COR - 01,-22.91195441,-43.20319196,-1.0
000633,Terraço do COR - 02,-22.911989,-43.2032912,-1.0
000634,Terraço do COR - 03,-22.91212488,-43.203427989999994,-1.0
000635,Terraço do COR - 04,-22.91201741,-43.203395799999996,-1.0
000636,Av. Brasil X R. Leocádio Figueiredo - Guadalupe Shopping,-22.84057995,-43.36928373,-1.0
000637,Terraço do COR - 05,-22.91209884,-43.20398023,-1.0
000638,Terraço do Cass - 06,-22.911742,-43.204353,-1.0
000639,Terraço do COR - 07,-22.91209884,-43.20398023,-1.0
000640,Poste 1 - Ponte Nova BRT Barra da Tijuca,-22.97285673,-43.36323015999999,-1.0
000646,Av. Vieira Souto x Posto 9,-22.962437069999996,-43.1667085,-1.0
000647,Av. Brasil x Altura  Parada de Lucas,-22.815488,-43.30000199999999,-1.0
000648,Cidade das Artes 1,-22.99906423,-43.36621528,-1.0
000649,Cidade das Artes - Av. das Américas alt. Carrefour,-22.998798,-43.365,-1.0
000650,AV. AYRTON SENNA X PONTE ESTAIADA 1,-22.97409536,-43.36383348,-1.0
000651,AV. AYRTON SENNA X PONTE ESTAIADA 2,-22.97211978,-43.36254602,-1.0
000652,Monumento Zumbi dos Palmares,-22.906835249999997,-43.1963188,-1.0
000653,R. 24 de Maio X R. Bela Vista AP Meier,-22.9027610614275,-43.2677385276126,-1.0
000654,Av. Lúcio Costa 3100,-23.011501569999997,-43.325202770000004,-1.0
000659,Tunel da Expressa - Cam 01,-22.901577519999996,-43.22631662,-1.0
000660,Túnel Rebouças - NORTE 01,-22.958329409999997,-43.20437615,-1.0
000661,Túnel Rebouças - NORTE 02,-22.957178499999998,-43.204295689999995,-1.0
000662,Túnel Rebouças - NORTE 03,-22.95383439,-43.20382362,-1.0
000663,Túnel Rebouças - NORTE 04,-22.953298439999998,-43.20376997,-1.0
000664,Túnel Rebouças - NORTE 05,-22.95114472,-43.203469569999996,-1.0
000665,Túnel Rebouças - NORTE 010,-22.94994929,-43.203330089999994,-1.0
000666,Túnel Rebouças - NORTE 011,-22.94882795,-43.20312087999999,-1.0
000667,Túnel Rebouças - NORTE 012,-22.948249989999997,-43.20308065,-1.0
000668,Túnel Rebouças - NORTE 013,-22.946570419999997,-43.2027856,-1.0
000669,Túnel Rebouças - NORTE 014,-22.944633959999997,-43.20219015,-1.0
000670,Túnel Rebouças - NORTE 015,-22.94415972,-43.202447639999995,-1.0
000671,Túnel Rebouças - NORTE 016,-22.94174897,-43.20225988999999,-1.0
000672,Túnel Rebouças - NORTE 017,-22.94047442,-43.202034579999996,-1.0
000673,Túnel Rebouças - NORTE 018,-22.93859221,-43.20295726,-1.0
000674,Túnel Rebouças - NORTE 019,-22.937989499999997,-43.20363854,-1.0
000675,Túnel Rebouças - NORTE 021,-22.93719412,-43.205369909999995,-1.0
000676,Túnel Rebouças - NORTE 022,-22.93690512,-43.20603644,-1.0
000677,Túnel Rebouças - NORTE 023,-22.93635427,-43.207154919999994,-1.0
000678,Túnel Rebouças - NORTE 024,-22.935702149999997,-43.20841556,-1.0
000679,Túnel Rebouças - NORTE 025,-22.935129070000002,-43.20916121,-1.0
000680,Túnel Rebouças - EXTERNA 01,-22.959402909999998,-43.204539999999994,-1.0
000681,Túnel Rebouças - EXTERNA 02,-22.959409139999998,-43.20465,-1.0
000682,Túnel Rebouças - SUL 10,-22.93478448,-43.20986798,-1.0
000683,Túnel Rebouças - SUL 12,-22.935456369999997,-43.20917328,-1.0
000684,Túnel Rebouças - SUL 13,-22.935787369999996,-43.20887824,-1.0
000685,Túnel Rebouças - SUL 15,-22.93607144,-43.20815404,-1.0
000686,Túnel Rebouças - SUL 17,-22.93607144,-43.20841154,-1.0
000687,Túnel Rebouças - SUL 18,-22.936807549999997,-43.20734938,-1.0
000688,Túnel Rebouças - SUL 19,-22.9371336,-43.206587629999994,-1.0
000689,Túnel Rebouças - SUL 20,-22.93739544,-43.20608874,-1.0
000690,Túnel Rebouças - SUL 21,-22.94754729,-43.20348164,-1.0
000691,Túnel Rebouças - SUL 22,-22.950180229999997,-43.20370694,-1.0
000692,Túnel Rebouças - SUL 23,-22.95489271,-43.20432921,-1.0
000693,Túnel Rebouças - SUL 24,-22.956848779999998,-43.204602799999996,-1.0
000694,Túnel Rebouças - SUL 25,-22.957777419999996,-43.204634989999995,-1.0
000700,BRT TRANSOLMPICA X ETR. DO CATONHO,-22.898729,-43.397343,-1.0
000701,AV. CARLOS PONTES - JARDIM DA SAUDADE,-22.891035,-43.400924,-1.0
000702,AV. MARECHAL FONTENELLE X VIADUTO TRANSOLÍMPICA,-22.885326,-43.400617999999994,-1.0
000703,AV. MARECHAL FONTENELE X RUA PACÍFICO PEREIRA,-22.885143,-43.38968599,-1.0
000704,BRT TRANSOLÍMPICA X ETR. MARECHAL MALLET,-22.876247850000002,-43.40474475999999,-1.0
000705,BRT TRANSOLÍMPICA X R. ALMIRANTE MILÂNEZ,-22.872966,-43.408237,-1.0
000706,R. ENGENHEIRO TRAJANO DE MEDEIROS X R. CARINHANHA,-22.872911,-43.41286,-1.0
000707,AV. DUQUE DE CAXIAS X R. SALUSTIANO SILVA,-22.870199,-43.411141,-1.0
000708,AV. DUQUE DE CAXIAS X TEN. NEPOMUCENO,-22.867998,-43.406686,-1.0
000709,PRAÇA SÃO SALVADOR,-22.934252,-43.180704,-1.0
000710,ELEVADOR CANTAGALO - DOME 1,-22.983552,-43.198632,-1.0
000711,AV. BRASIL X R. CORONEL PEDRO ANGELO,-22.864313,-43.417547,-1.0
000712,AV. ATLANTICA c/ RUA JULIO DE CASTILHOS,-22.983754,-43.189611,-1.0
000713,AV. DUQUE DE CAXIAS X AV. GAL. GOMES CARNEIRO,-22.862207,-43.394428,-1.0
000714,PRAÇA SAO SALVADOR 2,-22.934134,-43.180234,-1.0
000715,Av. Brasil x R. Gericinó,-22.85906,-43.405754,-1.0
000716,AV. BRASIL x ALTURA DA BASE DE APOIO LOGÍSTICO DO EXÉRCITO,-22.855215,-43.397336,-1.0
000717,AV. DUQUE DE CAXIAS X ETR. SÃO PEDRO DE ALCANTARA,-22.855068,-43.385337,-1.0
000718,ETR. MARECHAL ALENCASTRO X AV. BRASIL,-22.850972,43.394688,-1.0
000719,ETR. MARECHAL ALENCASTRO X R. TENENTE SERAFIM,-22.848646,-43.395961,-1.0
000720,RUA FRANCISCO OTAVIANO X N.S. DE COPACABANA,-22.986715,-43.189779,-1.0
000721,ETR. MARECHAL ALENCASTRO X R. ARIPUA,-22.842059,-43.39865199,-1.0
000722,ETR. MARECHAL ALENCASTRO  X AV. NAZARE,-22.853243,-43.39135099,-1.0
000723,ETR. CAMBOATÁ X AV. BRASIL,-22.848802,-43.384105,-1.0
000724,AV. BRASIL X R. MARCOS DE MACEDO,-22.843844,-43.37525,-1.0
000725,AV. BRASIL X RUA LOCÁDIO FIGUEREIDO,-22.841604,-43.370782,-1.0
000726,"AV. BRASIL, ALTURA FAZENDA BOTAFOGO",-22.83179189,-43.35313141,-1.0
000727,TREVO DAS MARGARIDAS 2,-22.821375,-43.322484,-1.0
000728,"AV. BRASIL, ALTURA RODOVIA PRESIDENTE DUTRA",-22.819605,-43.311889,-1.0
000729,"AV. BRASIL, ALTURA DO VIADUTO PARADA DE LUCAS",-22.815611,-43.3009,-1.0
000730,AV. BRASIL x  ALTURA DO TREVO DAS MISSOES 2,-22.816019,-43.289709,-1.0
000731,"AV. BRASIL , ALTURA DO TREVO DAS MISSES 1",-22.81748,-43.286044,-1.0
000732,AV. BRASIL X AV. LOBO JÚNIOR,-22.827076,-43.274333,-1.0
000733,AV. VINTE DE JANEIRO x  ALTURA DO TERMINAL 2 DO AEROPORTO,-22.813848,-43.244839,-1.0
000734,ETR. DO GALEO X ETR. DAS CANRIAS,-22.82032,-43.227354,-1.0
000735,R. NERVAL DE GOUVIA X R. FERRAZ,-22.884257,-43.326778,-1.0
000736,AV. MINISTRO EDGAR ROMERO Nº 663 x PROX. AO CORREIO DE VAZ LOBO,-22.862796,-43.331587,-1.0
000737,Av. P. Martin Luther King Jr. X Largo do Vicente de Carvalho,-22.853136,-43.314891,-1.0
000738,AV. VICENTE DE CARVALHO X R. SOLDADO SERVINO MENGAROA,-22.847473,-43.305032,-1.0
000739,R. CARDOSO DE MORAES X R. BARROS BARRETO,-22.859729999999995,-43.256233,-1.0
000740,VIADUTO ENGENHEIRO EDNO MACHADO - SENTIDO ILHA,-22.850908,-43.247578,-1.0
000741,Av. Brasil x Altura do Viaduto da Ilha,-22.845037,-43.249251,-1.0
000742,AV. BRIGADEIRO TROMPOWSKI X TERMINAL BRT,-22.847675,-43.244299,-1.0
000743,HOSPITAL UNIVERSITÁRIO DA ILHA DO FUNDO X AV. 24,-22.845377,-43.238183,-1.0
000744,RUA 5 x ALTURA DO CENPES (ILHA DO FUNDÃO),-22.856913,-43.234541,-1.0
000745,AV. HORÁCIO DE MACEDO X PRAÇA GIULIO MASSARANI,-22.864625,-43.228961,-1.0
000746,"LINHA AMARELA ENTRADA 2, SENTIDO BARRA",-22.904457,-43.304846,-1.0
000747,R. GOIÁS X R. GUINEZA - FIXA,-22.89507572,-43.298048349999995,-1.0
000748,"AV. LINHA AMARELA, ENTRADA 3",-22.893577,-43.29989799,-1.0
000749,LINHA AMARELA SAÍDA 3 -  SENTIDO AV. BRASIL,-22.892213,-43.298779,-1.0
000750,R. JOSÉ DOS REIS X R. GENERAL CLARINDO,-22.892415,-43.294919,-1.0
000751,R. DAS OFICINAS X R. JOSÉ DOS REIS,-22.890699,-43.294331,-1.0
000752,R. DAS OFICINAS X R. HENRIQUE SCHEID,-22.891463,-43.291486,-1.0
000755,"LINHA AMARELA, ALTURA DO CEMITÉRIO DE INHAÚMA",-22.876756,-43.27650498999999,-1.0
000756,AV. DOS DEMOCRÁTICOS X  AV. NOVO RIO,-22.871755,-43.25825799999999,-1.0
000757,R. CONDE DE BONFIM 305 - FIXA,-22.923262,-43.231088,-1.0
000758,AV. MARACANA X PRAÇA LUIS LA SAIGNE,-22.921331,-43.235703,-1.0
000759,R. SÃO FRANCISCO XAVIER X R. 8 DE DEZEMBRO - FIXA,-22.908938,-43.238636,-1.0
000760,AV. MARECHAL RONDON X R. SOUSA DANTAS,-22.905137,-43.244102,-1.0
000761,R. 24 DE MAIO N161,-22.90124,-43.249144,-1.0
000762,LARGO DO PEDREGULHO,-22.899043,-43.236,-1.0
000763,"R. SO LUIZ GONZAGA, ALTURA DA CADEG",-22.895967,-43.237103,-1.0
000764,DESCIDA DO VIADUTO ANA NERI X R. SEN. BERNARDO MONTEIRO,-22.894948,-43.239928,-1.0
000765,R. PREFEITO OLIMPIO DE MELO X R. CHIBATA,-22.890345,-43.23419,-1.0
000766,Rua Bela 909 - FIXA,-22.88797118,-43.225377439999995,-1.0
000767,AV. BRASIL X R. FRANCO DE ALMEIDA - FIXA,-22.886307,-43.224766,-1.0
000768,AV. BRASIL X R. FRANCO DE ALMEIDA,-22.886519999999997,-43.22519,-1.0
000769,"AV. RIO DE JANEIRO, ALTURA PORTÃO CAIS DO PORTO",-22.889535,-43.215804,-1.0
000770,R. GENERAL CANABARRO X R. MATA MACHADO,-22.913313,-43.225239,-1.0
000771,AV. RADIAL OESTE X VIADUTO ODUVALDO COZZI,-22.910868,-43.226114,-1.0
000772,VIADUTO ODUVALDO COZZI,-22.910374,-43.223711,-1.0
000773,R. GENERAL HERCULANO GOMES - FIXA,-22.908976,-43.222637,-1.0
000774,QUINTA DA BOA VISTA 2 -FIXA,-22.908126,-43.221771,-1.0
000775,QUINTA DA BOA VISTA,-22.904731,-43.220328,-1.0
000776,CAMPO DE SÃO CRISTÓVÃO X COLÉGIO PEDRO II,-22.899081,-43.220322,-1.0
000777,QUINTA DA BOA VISTA ENTRADA DO MUSEU,-22.905536,-43.22464,-1.0
000778,AV. FRANCISCO BIVALHO X AV. PEDRO II,-22.901803,-43.210542,-1.0
000779,AV. FRANCISCO BICALHO ALTURA RODOVIARIA NOVO RIO,-22.897165,-43.21252,-1.0
000782,Av. Rodrigues Alves x R. Cordeiro da Graça,-22.89712,-43.20647,-1.0
000783,PRAÇA DINA DE QUEIROZ,-22.905262,-43.208297,-1.0
000785,R. RIVADÁVIA CORREIA X AV. RODRIGUES ALVES,-22.892956,-43.195942,-1.0
000786,AV. VIERA SOUTO x RUA TEIXEIRA DE MELO,-22.986963,-43.198763,-1.0
000787,AV. RIO BRANCO X AV. RODRIGUES ALVES (PRAÇA MAUÁ),-22.896,-43.18160399,-1.0
000788,AV. PAULO DE FRONTIN,-22.91148,-43.209339,-1.0
000789,AV. SALVADOR DE SÁ X RUA ESTÁCIO  DE SÁ  X FREI CANECA,-22.913843639999996,-43.20440066,-1.0
000790,AV. SALVADOR DE SÁ X R. FREI CANECA (LARGO DO ESTÁCIO),-22.913196,-43.202951,-1.0
000791,AV. 31 DE MARÇO x RUA ELEONE DE ALMEIDA,-22.917079,-43.194054,-1.0
000793,AV. SALVADOR DE SÁ X TRAV. PEDREGAIS,-22.912047,-43.197545,-1.0
000794,ENTRADA DO TÚNEL DO CATUMBI,-22.91231,-43.195245,-1.0
000795,"AV. SALVADOR DE SÁ, ALTURA DO BPCHQ",-22.911706,-43.195338,-1.0
000796,"R. BENEDITO HIPLITO, ALTURA DO SAMBODROMO",-22.908363,-43.196868,-1.0
000797,"AV. PRESIDENTE VARGAS, ALTURA DO SAMBÓDROMO",-22.906894,-43.197262,-1.0
000798,VIADUTO SÃO PEDRO / SÃO PAULO X R. DO PINTO,-22.903302,-43.199097,-1.0
000799,PRAÇA SANTO CRISTO,-22.898772,-43.201872,-1.0
000800,R. DO SENADO X R. VINTE DE ABRIL,-22.910439,-43.188245,-1.0
000801,AV. MEM DE S X R. DOS INVÁLIDOS - FIXA,-22.91271,-43.184501,-1.0
000802,PRAÇA DA REPUBLICA X R. BUENOS AIRES,-22.906172,-43.187269,-1.0
000803,R. DA CONSTITUIÇÃO X PRAÇA TIRADENTES,-22.906749,-43.183574,43.0
000804,AV. PASSOS X R. BUENOS AIRES,-22.904554,-43.183216,68.0
000805,PRAÇA DINA DE QUEIROZ,-22.903901,-43.181448,-1.0
000806,AV. PASSOS X AV. MARECHAL FLORIANO,-22.901978,-43.184661,-1.0
000807,R. ACRE X AV. MARECHAL  FLORIANO X R. URUGUAIANA,-22.90104,-43.182102,-1.0
000808,AV. MARECHAL FLORIANO (LARGO DE SANTA RITA),-22.900416,-43.181051,-1.0
000809,AV. RIO BRANCO X R. VISCONDE DE INHAUMA,-22.899948,-43.179575,-1.0
000810,R. PRIMEIRO DE MARÇO X PRAÇA BARÃO DE LADÁRIO,-22.899088,-43.177177,-1.0
000811,ENTRADA DO MERGULHÃO DA PRAÇA XV,-22.900079999999996,-43.17634198999999,-1.0
000812,AV. REPÚBLICA DO PARAGUAI X AV. REPÚBLICA DO CHILE,-22.909237,-43.180223,-1.0
000813,AV. REPÚBLICA DO CHILE X R. SENADOR DANTAS,-22.908622,-43.178492,-1.0
000814,AV. ALM. BARROSO X R. MEXICO,-22.907812,-43.175702,-1.0
000815,AV. NILO PEÇANHA X AV. PRESIDENTE ANTÔNIO CARLOS,-22.906245,-43.173754,-1.0
000816,AV. RIO BRANCO X R. DA ASSEMBLÉIA,-22.905894,-43.177396,-1.0
000817,AV. RIO BRANCO X R. DO OUVIDOR,-22.903674,-43.17816,-1.0
000818,R. BUENOS AIRES X R. DA QUITANDA,-22.902289,-43.177587,-1.0
000819,CINELANDIA,-22.911706,-43.175258,-1.0
000820,AV. CALÓGERAS X R. SANTA LUZIA,-22.910569,-43.173752,-1.0
000821,R. SANTA LUZIA X AV. PRESIDENTE ANTÔNIO CARLOS,-22.909656,-43.172181,-1.0
000822,AV. PRESIDENTE ANTÔNIO CARLOS X AV. BEIRA MAR,-22.911354,-43.171541,-1.0
000823,AV. PRESIDENTE ANTNIO CARLOS X ATERRO,-22.911937,-43.171424,-1.0
000824,AV. BEIRA MAR X R. DO RUSSEL,-22.920805,-43.174486,-1.0
000825,"AV. INFANTE DOM HENRIQUE, ALTURA DA MARINA DA GLÓRIA",-22.920814,-43.171615,-1.0
000826,SAÍDA DO MERGULHÃO DA PRAÇA XV,-22.906653,-43.168602,-1.0
000827,RUA DO CATETE X R. SILVEIRA MARTINS,-22.925483,-43.17301,-1.0
000828,"AV. INFANTE DOM HENRIQUE ,  EM FRENTE A PISTA DE SKATE",-22.924812,-43.171236,-1.0
000829,AV. INFANTE DOM HENRIQUE X R. MACHADO DE ASSIS,-22.930349,-43.172932,-1.0
000830,ATERRO X R. SENADOR EUZÉBIO,-22.936688,-43.173071,-1.0
000832,R. DO CATETE X R. CORRÊA DUTRA,-22.927596,-43.176835,-1.0
000833,R. DO CATETE X R. CORRA DUTRA - FIXA,-22.938009,-43.177722,-1.0
000834,R. MARQUÊS DE ABRANTES X ALTURA DA P.DE BOTAFOGO - FIXA,-22.94104,-43.178764,-1.0
000835,Av. das Nações Unidas X  Botafogo - FIXA,-22.949610699999997,-43.18063271,-1.0
000836,AV. PASTEUR X AV. PORTUGAL,-22.953376,-43.171395,-1.0
000837,AV. PRINCESA ISABEL X SAÍDA DO TÚNEL NOVO,-22.961006,-43.175648,-1.0
000838,AV. NOSSA Sra DE  COPACABANA X R. FIG. MAGALHÃES - FIXA,-22.97030516,-43.18587461,-1.0
000839,R. JARDIM BOTNICO X R. MARIA ANGLICA,-22.960786,-43.207992,-1.0
000840,AV. BORGES DE MEDEIROS X R. MARIA ANGÉLICA - FIXA,-22.963019999999997,-43.207585,-1.0
000841,AV. ATLANTICA C/ RUA SÁ FERREIRA,-22.98076467,-43.18964062,-1.0
000842,AV. LINEU DE P. MACHADO X R. BATISTA DA COSTA - FIXA,-22.964217,-43.216124,23.0
000843,AV. EPITÁCIO PESSOA X R. FONTE DA SAUDADE,-22.967483,-43.203732,-1.0
000844,AV. EPITÁCIO PESSOA X R. TABATINGUERA,-22.973522,-43.207826,-1.0
000845,JOQUEI - FIXA,-22.973291,-43.225274,-1.0
000846,AV. BORGES DE MEDEIROS X PARQUE DOS PATINS - FIXA,-22.97027,-43.217357,-1.0
000847,R. MÁRIO RIBEIRO X AV. BARTOLOMEU MITRE,-22.97816,-43.224719,-1.0
000848,"AV. EPITÁCIO PESSOA, PRÓX. AO CORTE DO CANTAGALO",-22.979043,-43.200772,-1.0
000849,RUA GASTÃO BAIANA,-22.978126,-43.19874,-1.0
000850,R. RAUL POMPÉIA X R. SOUSA LIMA,-22.982079,-43.192354,-1.0
000851,"AV. ATLANTICA, ALTURA DO FORTE DE COPACABANA",-22.986196,-43.188677,-1.0
000852,AV. RAINHA ELIZABETH X R. BULHÕES DE CARVALHO,-22.985575,-43.192902,-1.0
000854,R. PRUDENTE DE MORAIS X R. GOMES CARNEIRO,-22.985749,-43.197472,-1.0
000855,R. PRUDENTE DE MORAIS X R. JOANA ANGLICA,-22.985275,-43.205078,-1.0
000856,R. GARCIA D´ÁVILA (ESTAÇÃO DO METRÔ),-22.984085,-43.209187,-1.0
000857,R. PRUDENTE DE MORAIS X R. ANÍBAL DE MENDONÇA,-22.985034,-43.211388,-1.0
000858,AV. VIEIRA SOUTO X AV. DELFIM MOREIRA,-22.986214,-43.215525,-1.0
000859,R. PRUDENTE DE MORAIS X AV. BORGES DE MEDEIROS - FIXA,-22.984817,-43.215916,-1.0
000860,JARDIM DE ALAH,-22.983686,-43.215706999999995,-1.0
000861,AV. DELFIM MOREIRA X R. ALMIRANTE GUILHEM,-22.986492,-43.218509,-1.0
000862,R. GENERAL SAN MARTIN X R. CARLOS GÓIS - FIXA,-22.984936,-43.219755,-1.0
000863,R. GENERAL SAN MARTIN X PRAIA ANTERO DE QUENTAL - FIXA,-22.98538,-43.222897,-1.0
000864,R. GENERAL SAN MARTIN X R. GENERAL VENÂNCIO FLÔRES,-22.985943,-43.224705,-1.0
000865,AV. DELFIM MOREIRA X R. ARISTÍDES ESPÍNOLA,-22.98763,-43.225597,-1.0
000866,AV. PREFEITO MENDES DE MORAIS Nº 550,-22.998472,-43.25626199,-1.0
000867,"ESTRADA  DO JOÁ, INÍCIO DE SÃO CONRADO",-22.999446,-43.27230399,-1.0
000868,ESTRADA DA PEDRA BONITA X ESTRADA DA GAVEA PEQUENA,-22.976029,-43.278366,-1.0
000869,R. SARGENTO JOÃO DE FARIA X AV. MINISTRO IVAN LINS - FIXA,-23.013308,-43.297607,-1.0
000870,AV. OLEGÁRIO MACIEL X AV. GILBERTO AMADO - FIXA,-23.011972,-43.304979,-1.0
000871,AV. MINISTRO IVAN LINS X PONTE VELHA,-23.008541,-43.303363,-1.0
000872,AV. DO PEP X AV. OLEGRIO MACIEL - FIXA,-23.015203,-43.3058,-1.0
000873,AV. ÉRICO VERÍSSIMO X RUA FERNANDO DE MATTOS - FIXA,-23.011422339999996,-43.30971037,-1.0
000874,AV. LUCIO COSTA X AV. RICO VERISSIMO,-23.014031,-43.313656,-1.0
000875,AV. RODOLFO AMOEDO X RUA GAL. RAULINO DE OLIVEIRA,-23.009569,-43.316964,-1.0
000876,"AV. DAS AMÉRICAS, ALTURA DO SHOPPING DOWNTOWN",-23.004974,-43.320198,-1.0
000877,"AV. LÚCIO COSTA, ALTURA DO HOTEL WINDSOR",-23.01225,-43.321456,-1.0
000878,PONTE LÚCIO COSTA X AV. LÚCIO COSTA,-23.006451,-43.329006,-1.0
000879,"AV. DAS AMÉRICAS, ALTURA DO SUPERMERCADO GUANABARA",-23.000475,-43.337703,-1.0
000880,"AV. DAS AMÉRICAS, ALTURA DO NEW YORK CITY CENTER",-23.0,-43.360731,-1.0
000881,AV. DAS AMÉRICAS X R. RACHEL DE QUEIROZ,-23.000728,-43.3738811,-1.0
000882,AV. DAS AMERICAS X R. PROFESSOR ALFREDO COLOMBO,-23.000747,-43.388419,-1.0
000883,"AV. DAS AMÉRICAS, ALTURA DO CONDOMÍNIO NOVO MUNDO",-23.000197,-43.399086,-1.0
000884,"AV. LÚCIO COSTA, ALTURA DO POSTO 7",-23.010333,-43.351592,-1.0
000885,AV. LÚCIO COSTA X ILHA 5,-23.015858,-43.413433,-1.0
000886,AV. LÚCIO COSTA X ILHA 3,-23.019408,-43.433356,-1.0
000887,"AV. DAS AMÉRICAS, ALTURA DO BARRA WORLD",-23.009377,-43.440528,-1.0
000888,"AV. DAS AMÉRICAS, ALTURA DO SUPERMERCADO MUNDIAL",-23.009662,-43.448128989999994,-1.0
000889,AV. GENARO DE CARVALHO X  R. JOAQUIM JOSE COUTO,-23.01364,-43.446577,-1.0
000890,AV. ALFREDO BALTAZAR DA SILVEIRA X AV. PEDRO MOURA,-23.017958,-43.450533,-1.0
000891,AV. LUCIO COSTA X RUA ALBERT SABINN - FIXA,-23.028236,-43.466651,-1.0
000892,AV. GENARO DE CARVALHO X AV. GILKA MACHADO,-23.019117939999997,-43.467384579999994,-1.0
000894,"AV. DAS AMERICAS, ALTURA DO Nº 19.400",-23.018612,-43.508016,-1.0
000895,"AV. DAS AMÉRICAS, SAÍDA DO T. DA GROTA FUNDA - SENTIDO GUARATIBA",-23.015903,-43.517289,-1.0
000896,ESTR. DO RIO MORTO  X ESTR. BANDEIRANTES,-22.986869,-43.48969599,-1.0
000897,AV. DAS AMERICAS ? ESTAÇÃO BRT GOLFE OLÍMPICO,-23.000053,-43.411389,-1.0
000898,"AV. DAS AMRICAS, ALTURA DA RESERVA UNO",-23.000053,-43.404831,-1.0
000899,"AV. SALVADOR ALLENDE, ALTURA DA ASSEMBLÉIA DE DEUS",-22.989263,-43.416883,-1.0
000901,"AV. DOS BANDEIRANTES, E/F À GLAXO",-22.972078,-43.41415799,-1.0
000902,"AV. DOS BANDEIRANTES, ALTURA DO Nº 7800",-22.968051,-43.413291,-1.0
000903,"AV. EMBAIXADOR ABERLADO BUENO, PRÓX. AO PARQUE AQUÁTICO MARIA LENK",-22.973572,-43.38812299999999,-1.0
000904,"AV. ABELARDO BUENO, ALTURA DO Nº 523",-22.973124,-43.388189999999994,-1.0
000905,SHOPPING METROPOLITANO,-22.973381,-43.36894699,-1.0
000906,AV. ABELARDO BUENO X AV. AYRTON SENNA,-22.970866,-43.360453,-1.0
000907,AV. ATLANTICA X RUA CONSTANTE RAMOS,-22.978112,-43.18883699999999,-1.0
000908,AV. SALVADOR ALLENDE X ESTR. DOS BANDEIRANTES X TRANSOLIMPICA,-22.961336,-43.392077990000004,-1.0
000909,RUA VENTURA X RUA REVERÊNCIA,-22.954506,-43.389984,-1.0
000910,ESTR. DE CURICICA X R. MARCELO GORDILO,-22.951914,-43.39165,-1.0
000911,R. VENTURA x ESTR. DE CURICICA,-22.948329,-43.39040598999999,-1.0
000912,BRT TRANSOLÍMPICA X AV. SAMPAIO CORRÊA,-22.938136,-43.395118999999994,-1.0
000913,CONTORNO BRT TRANSOLIPICA ALTURA DA FAVELA VALE DO IPE,-22.937864,-43.38525599999999,-1.0
000914,AV. ATLANTICA COM MIGUEL DE LEMOS,-22.974708,-43.187002,-1.0
000915,CAMERA HOTEL ATL. SUL,-23.030066,-43.47019698999999,-1.0
000916,FRANCISCO BICALHO - RUA IDALINA SENRA,-22.908215369999997,-43.20998279,-1.0
000917,PCA. GENERAL OSORIO (ED. XAVIER),-22.985861,-43.197930989999996,-1.0
000918,RIVADAVIA CORREA X LIVRAMENTO - Pn - 19,-22.89761368,-43.19569831,-1.0
000919,VIA TRILHOS ALTURA DA RODOVIARIA,-22.898400000000002,-43.20731,-1.0
000920,AV. BRASIL - RUA SÃO CRISTOVAO - Pn - 21,-22.89804,-43.21223,-1.0
000922,AV. MARECHAL FLORIANO X LARGO DA SANTA RITA - Pn - 23,-22.900269999999995,-43.18098,-1.0
000923,Cidade Do Samba - Pn - 24,-22.895789999999998,-43.19801,-1.0
000924,R. Equador X Cidade de Lima X Comte. Garcia - Pn - 25,-22.90026,-43.207649999999994,61.0
000925,Perimetral - Pn - 26,-22.89839,-43.21106999999999,-1.0
000926,R. Senador Pompeu X Rua da América - Pn - 29,-22.90417,-43.19664999999999,-1.0
000927,Av. Marechal Floriano X R. Visconde da Gávea - Pn - 32,-22.903419999999997,-43.18856,-1.0
000928,Praça Marechal Hermes - Pn - 33,-22.900339999999996,-43.20502,-1.0
000929,R. Bento Ribeiro X R. Cel. Aldomaro Costa - Pn - 35,-22.90109,-43.19270999999999,-1.0
000930,Av. Brasil Altura Do Cajú - Pn - 36,-22.888749999999998,-43.21873,-1.0
000931,Av. Marechal Floriano X R. Acre - Pn - 37,-22.900979999999997,-43.1822,-1.0
000932,Av. Marechal Floriano X R. Camerino - Pn - 38,-22.901999999999997,-43.18476999999999,-1.0
000933,Av. Binário Do Porto X R. Silvino Montenegro - Pn - 39,-22.89365,-43.19103,-1.0
000934,Av. Francisco Bicalho X Av. Pedro II - Pn - 40,-22.901829999999997,-43.21039,-1.0
000935,Av. Rodrigues Alves X R. Cordeiro da Graça - Pn - 41,-22.897724,-43.20610399,-1.0
000936,Av. Venezuela X R. Edgard Gordilho - Pn - 42,-22.896819999999998,-43.183809999999994,-1.0
000938,Praça Marechal Hermes X Via D1 - Pn - 45,-22.90033,-43.20655,-1.0
000939,Praça Duque de Caxias X Praça Cristiano Otoni - Pn - 46,-22.90451,-43.19035,-1.0
000940,R. Equador X Rua Do Santo Cristo - Pn - 47,-22.89638,-43.20121,-1.0
000941,Vd. Gasômetro Sentido Centro - Pn - 48,-22.895919999999997,-43.21467,-1.0
000942,Av. Brasil X Eduardo Luiz Lopes - Pn - 49,-22.894709999999996,-43.21500999999999,-1.0
000943,Av. Venezuela X R. Sacadura Cabral - Pn - 50,-22.89734,-43.182379999999995,-1.0
000946,R. Edgar Gordilho X Sacadura Cabral - Pn - 55,-22.897569999999998,-43.184149999999995,-1.0
000948,R. da Gamboa X Binário Do Porto - Pn - 57,-22.8954,-43.199009999999994,-1.0
000950,Rua Pedro Ernesto X Rua Sacadura Cabral - Pn - 60,-22.89612,-43.19186,-1.0
000951,TUNEL DA SAÚDE,-22.89612,-43.19186,-1.0
000952,RUA SACADURA CABRAL X RUA SOUZA E SILVA,-22.89612,-43.19186,-1.0
000953,AV. RIO DE JANEIRO (PORTAO 24),-22.89294,-43.214198,-1.0
000954,FRANCISCO BICALHO X LINHA FÉRREA,-22.90925463,-43.20995206,-1.0
000955,FRANCISCO BICALHO X PEDRO ALVES  - Pn - 06 .,-22.907965689999997,-43.209258330000004,-1.0
000956,31 DE MARCO X PRESIDENTE VARGAS  - Pn - 06,-22.905989139999996,-43.197928680000004,-1.0
000957,AV. PROF. PEREIRA REIS X AV. CIDADE DE LIMA,-22.898351979999997,-43.2021022,-1.0
000959,Tunel da Expressa - Cam37,-22.90365,-43.172492,-1.0
000960,Tunel da Expressa - Cam42,-22.90227625,-43.1736668,-1.0
000961,Tunel da Expressa - Cam43,-22.900927179999996,-43.17466398999999,-1.0
000962,Tunel da Expressa - Cam48,-22.89929667,-43.176251529999995,-1.0
000963,Tunel da Expressa - Cam51,-22.898120549999998,-43.178965930000004,-1.0
000964,Tunel da Expressa - Cam30,-22.89675664,-43.18350423,-1.0
000965,Tunel da Expressa - Cam27,-22.89735953,-43.18156231,-1.0
000967,"AV. ABELARDO BUENO, ALTURA DO Nº 523",-22.973124,-43.38819,-1.0
000970,R. EDGARD WERNECK X ETR. DO GABINAL,-22.952583,-43.35788,-1.0
000972,RUA VENTURA X RUA REVERÊNCIA,-22.954506,-43.389984,-1.0
000973,R. ANDRÉ ROCHA X R.  VENTURA,-22.948329,-43.390406,-1.0
000974,CONTORNO  BRT  TRANSOLIMPICA  ALTURA DA FAVELA VALE DO IPE,-22.937864,-43.385256,-1.0
000975,Viaduto do Gasometro sentido Centro cabine PMERJ,-22.898882,-43.210943,-1.0
000977,Av. Rodrigues Alves X Barão de Tefé - Pn - 02,-22.894569999999998,-43.18647,-1.0
000978,RUA BENTO RIBEIRO X SENADOR POMPEU - Pn - 03,-22.90247893,-43.19131448,-1.0
000979,Praça Mauá - Pn - 04,-22.89721778,-43.18067428,-1.0
000980,Rotatória Luiz Mendes de Morais - Pn - 05,-22.905079999999998,-43.20864,-1.0
000981,FRANCISCO BICALHO X VIA D1 - Pn - 06,-22.90676,-43.20943,-1.0
000982,Av. Francisco Bicalho II - Pn - 07,-22.905829999999998,-43.209540000000004,16.0
000983,Rodoviária - Pn - 08,-22.899269999999998,-43.20939,61.0
000984,RIO DE JANEIRO X ALMIRANTE MARIATH,-22.8921,-43.21512,-1.0
000985,31 de Março X Rua da América - Pn- 11,-22.903159999999996,-43.1991,-1.0
000986,Av. Cidade de Lima X Cordeiro da Graça - Pn - 13,-22.89954,-43.20518,-1.0
000987,BINARIO - PROXIMO A CIDADE DO SAMBA- Pn - 14,-22.894038829999996,-43.19628769,-1.0
000988,PRAÇA DO SANTO CRISTO - Pn - 15,-22.899669999999997,-43.20155,-1.0
000989,Av. Francisco Bicalho (Rampa de Acesso Ao Gasômetro) - Pn - 18,-22.90055,-43.209939999999996,-1.0
000990,Av. Rodrigues Alves Com Pereira Reis - Pn - 16,-22.896019999999996,-43.20318999999999,-1.0
000991,Av. Lúcio Costa 3100,-23.011501571163,-43.3252027790985,-1.0
001000,Av. Atlântica X R. Rainha Elisabeth,-22.984683060000002,-43.189587259999996,-1.0
001001,Av. Atlântica X Av. Princesa Isabel,-22.965241,-43.173547,-1.0
001002,Rua Barata Ribeiro X R. Professor Gastão Bahiana,-22.977813469999997,-43.19295061,-1.0
001003,Av. Francisco Bicalho X Av. Pedro II,-22.901803,-43.210542,-1.0
001004,Av. Niemeyer Prox. Hotel Nacional -FIXA,-22.998479500000002,-43.256180779999994,-1.0
001005,Av. Atlântica X R. Rep. Do Peru,-22.968999779999997,-43.18036966,-1.0
001006,Av. Vieira Souto X R. Vinícius de Moraes - FIXA,-22.986783179999996,-43.20296134,-1.0
001008,Av. Rio Branco X R. Evaristo da Veiga,-22.90951799,-43.17603412999999,-1.0
001009,"Av. Rodrigues Alves, alça de descida do Gasômetro",-22.9357021578352,-43.208415563928895,-1.0
001009,"Av. Rodrigues Alves, alça de descida do Gasômetro",-22.89844828,-43.20974736,-1.0
001010,"Av. Francisco Bicalho, 46 - frente a Rodoviária",-22.9351290792794,-43.209161218035,-1.0
001010,"Av. Francisco Bicalho, 46 - frente a Rodoviária",-22.89888,-43.210048,-1.0
001011,R. JOS DOS REIS X R. GENERAL CLARINDO,-22.89232086,-43.294818189999994,-1.0
001012,R. DAS OFICINAS X R. JOSÉ DOS REIS,-22.89051043,-43.29425697999999,-1.0
001013,R. DAS OFICINAS X R. HENRIQUE SCHEID,-22.89147164,-43.29162304999999,-1.0
001014,R. ARQUIAS CORDEIRO X R. DR. PADILHA,-22.895631,-43.291151,-1.0
001015,R. Arquias X R. Piaui,-22.896753,-43.286711,-1.0
001016,Av. Rodrigues Alves x R. Rivadávia Correa,-22.89312702,-43.196425119999994,-1.0
001017,"AV. EMBAIXADOR ABERLADO BUENO, PRÓX. AO PARQUE AQUÁTICO MARIA LENK",-22.973572,-43.38812299999999,-1.0
001018,"AV. ABELARDO BUENO, ALTURA DO Nº 523",-22.973124,-43.388189999999994,-1.0
001019,Descida do Megulhão x Sentido Barra,-22.997223939999998,-43.36567915,48.0
001020,Mergulhão Barra,-22.99743134,-43.36581862,48.0
001021,Drummond 02,-22.985286459999998,-43.18908585,-1.0
001022,Rock in Rio,-22.977439,-43.192835,-1.0
001023,Painel RIR,-22.969920600000002,-43.1821008,-1.0
001025,TÚNEL DO JOA,-23.0103816725025,-43.2884741386054,-1.0
001026,R. Aristides Caire X R. Santa Fé - FIXA,-22.89941568,-43.27842867,-1.0
001027,R. Aristides Caire X R. Santa Fé - FIXA,-22.899462619999998,-43.27859966,-1.0
001028,R. Aristides Caire X R. Santa Fé - FIXA,-22.89960593,-43.27806389,-1.0
001029,R. Aristides Caire X R. Santa Fé - FIXA,-22.899674499999996,-43.27816514,-1.0
001030,R. 24 de Maio X R. Cônego Tobias - FIXA,-22.902278049999996,-43.27763871,-1.0
001031,R. 24 de Maio X R. Cônego Tobias - FIXA,-22.902367,-43.277573,-1.0
001032,Rua Ana Barbosa nº12 - FIXA,-22.90162576,-43.28052342,-1.0
001033,Rua Ana Barbosa nº12 - FIXA,-22.90179872,-43.28070044999999,-1.0
001034,Rua Medina nº165 - FIXA,-22.900533669999998,-43.281945,-1.0
001035,Rua Medina nº165 - FIXA,-22.90062756,-43.281821609999994,-1.0
001037,R. Arquias Cordeiro x R. Coração de Maria - FIXA,-22.89919158,-43.28047196,-1.0
001038,R. SILVA RABELO 39  - FIXA,-22.90104722,-43.28030749,-1.0
001039,R. SILVA RABELO 39  - FIXA,-22.900876729999997,-43.28048183,-1.0
001040,Av. Amaro Cavalcanti - FIXA,-22.900354589999996,-43.27960348,-1.0
001041,R. Constança Barbosa x Av. Cavalcanti  - FIXA,-22.90047319,-43.2797054,-1.0
001042,"R. Dias da Cruz, 69 - FIXA",-22.901962,-43.279594,-1.0
001043,"R. Dias da Cruz, 69 - FIXA",-22.901967550000002,-43.27952224999999,-1.0
001044,"R. Dias da Cruz, 163 - FIXA",-22.90291088,-43.28215593,-1.0
001045,"R. Dias da Cruz, 163 - FIXA",-22.902817,-43.281995,-1.0
001046,R. Arquias Cordeiro 346  - FIXA,-22.90165462,-43.27796656,-1.0
001047,R. Arquias Cordeiro 346  - FIXA,-22.901764569999997,-43.27785793,-1.0
001048,R. Padre André Moreira 58 - FIXA,-22.902495,-43.27522924,-1.0
001049,Terminal Americo Ayres - FIXA,-22.9023134,-43.27552294,-1.0
001050,"R. Carolina Meier, 26 - FIXA",-22.90185542,-43.27634266999999,-1.0
001051,"R. Carolina Meier, 26 - FIXA",-22.90175597,-43.27628366,-1.0
001052,"R. Dias da Cruz, 19 - FIXA",-22.90211073,-43.27869533,-1.0
001053,"R. Dias da Cruz, 19 - FIXA",-22.90199213,-43.27867387999999,-1.0
001054,Terminal Américo Ayres - FIXA,-22.901713,-43.275514,-1.0
001055,Terminal Américo Ayres - FIXA,-22.90179144,-43.27518341,-1.0
001056,Hospital Salgado Filho  - FIXA,-22.90126856,-43.278365539999996,-1.0
001057,Av. Amaro Cavalcanti nº135  - FIXA,-22.901128,-43.278867,-1.0
001058,Av. Amaro Cavalcanti nº135  - FIXA,-22.901063139999998,-43.27890857,-1.0
001059,Praça Jardim so Méier  - FIXA,-22.90018106,-43.27859743,-1.0
001060,Estr. Do Portela 247 - FIXA,-22.870688459999997,-43.34182943,-1.0
001061,R. GENERAL HERCULANO GOMES - FIXA,-22.9089167,-43.22255183,-1.0
001062,QUINTA DA BOA VISTA 2 - FIXA,-22.908077229999996,-43.22174629,-1.0
001064,Estr. de Jacarepaguá X Estr.Do Engenho Dágua - FIXA,-22.95514142,-43.337281399999995,-1.0
001065,Estr. T. Coronel M. de Aragão X Estr. de Jacarepaguá - FIXA,-22.94757464,-43.33976877999999,-1.0
001068,R. Tirol X R. Cmte Rubens Silva - FIXA,-22.93959419,-43.33679092999999,-1.0
001069,Estr. dos Três Rios X R. Cmte Rubens Silva - FIXA,-22.93733752,-43.33727132,-1.0
001071,Av. Gal. San Martin X R. João Lira - FIXA,-22.98547633,-43.22201199,-1.0
001073,AV. LINEU DE P. MACHADO X R. JOSÉ JOAQUIM SEABRA - FIXA,-22.96416266,-43.21623664999999,23.0
001074,JOQUEI - FIXA,-22.973076919999997,-43.224984979999995,-1.0
001075,R. GENERAL SAN MARTIN X PRAIA A. DE QUENTAL - FIXA,-22.985538029999997,-43.22384113,-1.0
001076,Rua Conde de Bonfim X R. Radmaker - FIXA,-22.934519569999996,-43.24304072,-1.0
001077,R. Conde de Bonfim X R. Basileia - FIXA,-22.93880518,-43.24760535,-1.0
001078,Rua Conde de Bonfim X R. Radmaker - FIXA,-22.934319489999996,-43.243174829999994,-1.0
001079,"R. Dias da Cruz, 69 - FIXA",-22.90187305,-43.279587289999995,-1.0
001080,Estr. Do Cafundá X Estr. Meringuava - FIXA,-22.914203999999998,-43.37502635,-1.0
001082,Av. de Santa Cruz X Estr. Do Realengo - FIXA,-22.87836939,-43.44057402999999,-1.0
001083,Rua Bela 909 - FIXA,-22.88795511,-43.225290269999995,6.0
001086,AV. BORGES DE MEDEIROS X R. MARIA ANGÉLICA - FIXA,-22.96300703,-43.207458259999996,-1.0
001087,R. PRUDENTE DE MORAIS X AV. BORGES DE MEDEIROS - FIXA,-22.98477934,-43.216050779999996,-1.0
001090,Av. Brasil X Altura Estr. Do Engenho Novo - FIXA,-22.86517791,-43.427313979999994,-1.0
001091,Av. Pastor Martin Luther King Jr. X Av. Monsenhor Felix - FIXA,-22.847131549999997,-43.32467703,-1.0
001092,Estr. Intendente Magalhães X R. Henrique de Melo - FIXA,-22.87858753,-43.357533569999994,-1.0
001093,R. Candido Benicio X Estrada Intendente Magalhães - FIXA,-22.88304032,-43.342495660000004,-1.0
001097,Av. Braz de Pina X R CMTE. CONCEIÇÃO - FIXA,-22.839921,-43.281957,-1.0
001099,Av. Santa Cruz X R. Gal. Sezefredo - FIXA,-22.87788953,-43.43480649,-1.0
001101,R. Olinda Ellis X Alt. Centro Esportivo Miécimo da Silva - FIXA,-22.91428182,-43.55418511,-1.0
001107,Estr. Do Campinho X Estr. Santa Maria - FIXA,-22.89411486,-43.585040969999994,-1.0
001109,Conde de Bonfim X Alzira Brandão - FIXA,-22.924607339999998,-43.22441556,-1.0
001110,R. Conde de Bonfim X R. dos Araújos - FIXA,-22.92523,-43.225606,-1.0
001111,Av. D. Helder Câmara x R. Henrique Scheid - FIXA,-22.886630359999998,-43.2882145,-1.0
001112,R. Amaro Cavalcanti X Viaduto de Todos Os Santos - FIXA,-22.89730765,-43.28563647,-1.0
001113,R. GOIÁS X R. GUINEZA - FIXA,-22.895392,-43.298735,-1.0
001114,PORTÃO DA RÓTULA DA QUINTA DA BOA VISTA - FIXA,-22.9044747,-43.22063443,-1.0
001115,PORTÃO DA RÓTULA DA QUINTA DA BOA VISTA - FIXA,-22.9048972,-43.22047886,-1.0
001117,Rua Marquês de São Vicente X R. Vice-Gov. Rubens Berardo - FIXA,-22.97714671,-43.23073507,-1.0
001118,Boulevard 28 de Setembro  - FIXA,-22.91369517,-43.235507739999996,32.0
001119,Boulevard 28 de Setembro  - FIXA,-22.91362722,-43.23541452999999,32.0
001120,Rua São Francisco Xavier 478 - FIXA,-22.913406109999997,-43.23527840999999,32.0
001121,"R. São Francisco Xavier, 478 - FIXA",-22.91353458,-43.235333399999995,32.0
001122,Av. D. Helder Câmara X R. Cer. Daltro - FIXA,-22.882069008072897,-43.324964420148795,-1.0
001123,R. Bernardo de Vasconcelos X Praça Do Canhão - FIXA,-22.87626146,-43.42953026,-1.0
001124,R. SÃO FRANCISCO XAVIER X R. 8 DE DEZEMBRO - FIXA,-22.90878481,-43.23869499999999,-1.0
001127,R. GENERAL SAN MARTIN X R. CARLOS GÓIS - FIXA,-22.984945869999997,-43.21941167,-1.0
001128,Av. Ernani Cardoso X R. Padre Telêmaco - FIXA,-22.882098499999998,-43.33209376,-1.0
001129,R. André Rocha X R. Mal. José Beviláqua -FIXA,-22.923720709999998,-43.369100339999996,-1.0
001130,R. Santana X R. Frei Caneca - FIXA,-22.911288409999997,-43.193538749999995,-1.0
001132,R. Mem de Sá X R. de Santana - FIXA,-22.91105458,-43.19264235,-1.0
001133,AV. BORGES DE MEDEIROS Nº3709 - FIXA,-22.962791,-43.206331,-1.0
001134,AV. BORGES DE MEDEIROS Nº3709 - FIXA,-22.962907069999996,-43.206308199999995,-1.0
001135,Av. das Américas x Av. Ayrton Senna - Cebolão - FIXA,-23.00015987,-43.36986556,-1.0
001138,R. Muniz Barreto X R. Marques de Olinda - FIXA,-22.94362303,-43.183659209999995,57.0
001139,R. Muniz Barreto X R. Marques de Olinda - FIXA,-22.943625499999996,-43.18380405,57.0
001140,Av. Atlântica X R. Rep. Do Peru - FIXA,-22.96923966,-43.180864379999996,-1.0
001141,AV. BORGES DE MEDEIROS X PARQUE DOS PATINS - FIXA,-22.970157009999998,-43.217415329999994,-1.0
001142,Av. Borges de Medeiros X Av. Epitácio Pessoa - FIXA,-22.96323339,-43.204475499999994,-1.0
001143,Av. Borges de Medeiros X Av. Epitácio Pessoa - FIXA,-22.9633544,-43.2043092,-1.0
001144,Auto Estr. Lagoa-Barra X Est. da Gávea - FIXA,-22.99225659,-43.25182778,-1.0
001145,Auto Estr. Lagoa-Barra X Est. da Gávea - FIXA,-22.99240733,-43.25190402999999,-1.0
001146,R. Ibiapina X R. Monsenhor Alves - Brt - FIXA,-22.84178054,-43.274517409999994,-1.0
001147,R. Ibiapina X R. Monsenhor Alves - Brt - FIXA,-22.841863789999998,-43.27420118,-1.0
001148,Estr. da Barra da Tijuca 506 - FIXA,-23.007710569999997,-43.30250129,-1.0
001149,Estr. da Barra da Tijuca 506 - FIXA,-23.00763403,-43.302550909999994,-1.0
001150,Estr. da Barra da Tijuca x Hotel Serramar  Fixa,-23.004143749999997,-43.304510969999995,-1.0
001151,Estr. da Barra da Tijuca x Hotel Serramar  Fixa,-23.004025239999997,-43.304535109999996,-1.0
001152,AV. MEM DE SÁ X R. DOS INVÁLIDOS - FIXA,-22.91270999,-43.18437761,-1.0
001153,R. 24 de Maio X R. Bela Vista - FIXA,-22.902751178381198,-43.267912871198604,-1.0
001154,R. Visconde Do Rio Branco X R. Dos Inválidos - FIXA,-22.908306529999997,-43.18628424,-1.0
001155,R. CONDE DE BONFIM Nº 305 - FIXA,-22.923390459999997,-43.231495689999996,-1.0
001156,"Av. Rio Branco, 4700 - Glória - FIXA",-22.914145249999997,-43.174678789999994,54.0
001157,"Av. Rio Branco, 4700 - Glória - FIXA",-22.91405137,-43.17467677,54.0
001158,Av. Augusto Severo  Nº 1746 - FIXA,-22.9145149,-43.1761714,-1.0
001159,Av. Augusto Severo Nº 1746 - FIXA,-22.91460013,-43.17578516,-1.0
001160,R. Domingos Lopes X R. Maria Lopes - FIXA,-22.87984191,-43.3417642,-1.0
001161,RUA TEIXEIRA DE FREITAS 59 - FIXA,-22.914249,-43.17755,54.0
001162,RUA TEIXEIRA DE FREITAS 59 - FIXA,-22.914265049999997,-43.1777686,54.0
001163,AV. LAOURO SODRÉ X R. GENERAL GOIS MONTEIRO - FIXA,-22.955873429999997,-43.17793315,-1.0
001164,AV. LAOURO SODRÉ X R. GENERAL GOIS MONTEIRO - FIXA,-22.955740059999997,-43.17859833,-1.0
001167,"R. DO LAVRADIO, 151 - CENTRO - FIXA",-22.91185324,-43.18236631999999,-1.0
001168,"R. DO LAVRADIO, 151 - CENTRO - FIXA",-22.91196071,-43.18202836,-1.0
001169,"Rua dos Inválidos, 99 - Centro - FIXA",-22.9110065,-43.1851347,21.0
001170,"Rua dos Inválidos, 99 - Centro - FIXA",-22.91114856,-43.18508843,21.0
001171,"Rua  Estácio de Sá, 165 - Estácio - FIXA",-22.914749,-43.206623,-1.0
001172,"Rua  Estácio de Sá, 165 - Estácio - FIXA",-22.9146477,-43.20683221,-1.0
001173,Av. Atlântica X R. Figueiredo de Magalhães - FIXA,-22.971839209999995,-43.184593129999996,-1.0
001174,Av. Atlântica X R. Figueiredo de Magalhães - FIXA,-22.971766979999998,-43.18451937,-1.0
001175,Av. Atlântica X Av. Princesa Isabel - FIXA,-22.96514728,-43.17355044,-1.0
001176,Av. Atlântica X Av. Princesa Isabel - FIXA,-22.965061459999998,-43.173427059999995,-1.0
001177,Av. Atlântica X R. Anchieta - FIXA,-22.96364467,-43.16979344,-1.0
001178,Av. Atlântica X R. Anchieta -FIXA,-22.96356008,-43.16962312,-1.0
001179,R. Miguel Lemos X R. Barata Ribeiro - Fixa,-22.977513079999998,-43.192722339999996,-1.0
001180,R. Miguel Lemos X R. Barata Ribeiro - Fixa,-22.977426649999998,-43.19270624999999,-1.0
001181,R. Real Grandeza  X R. Anibal Reis - Fixa,-22.95904536,-43.19118395,-1.0
001182,R. Real Grandeza  X R. Anibal Reis - Fixa,-22.95917316,-43.19112025,-1.0
001184,Av. Atlântica X R. Miguel Lemos - Fixa,-22.978280359999996,-43.18848729,-1.0
001185,Av. Atlântica X R. Miguel Lemos - Fixa,-22.97841618,-43.18870589,-1.0
001186,Av. Atlântica X R. Miguel Lemos - Fixa,-22.978393949999997,-43.18842829,-1.0
001187,"Av. Atlântica, 185 - Copacabana - FIXA",-22.984869,-43.189226,-1.0
001188,"Av. Atlântica, 185 - Copacabana - FIXA",-22.984952949999997,-43.18933328,-1.0
001189,"Av. Atlântica, 185 - Copacabana - FIXA",-22.985859169999998,-43.18872308,-1.0
001190,AV. ATLÂNTICA 185 - FIXA,-22.986062880000002,-43.188652,-1.0
001191,AV. ATLÂNTICA 185 - FIXA,-22.984932,-43.188939,-1.0
001192,AV. ATLÂNTICA 185 - FIXA,-22.985035699999997,-43.1888934,-1.0
001193,AV. ATLÂNTICA 185 - FIXA,-22.985107309999997,-43.18899532,-1.0
001194,AV. ATLÂNTICA 185 - FIXA,-22.984265719999996,-43.189187049999994,-1.0
001195,AV. ATLÂNTICA 175 - FIXA,-22.98410892,-43.189250089999994,-1.0
001196,AV. ATLÂNTICA 175 - FIXA,-22.985196209999998,-43.18883975,-1.0
001197,AV ATLANTICA X  R. JULIO DE CASTILHO  - FIXA,-22.983829999999998,-43.189629,-1.0
001198,AV ATLANTICA X  R. JULIO DE CASTILHO  - FIXA,-22.984049759999998,-43.18953512,-1.0
001199,"Av. Atlântica, 4240  - FIXA",-22.986276,-43.188942,-1.0
001200,"Av. Atlântica, 4240  - FIXA",-22.98621673,-43.18881325,-1.0
001201,Av. Atlântica - Copacabana  -  FIXA,-22.983351,-43.189877,-1.0
001202,Av. Atlântica - Copacabana  -  FIXA,-22.983518909999997,-43.1896651,-1.0
001203,Avenida Atlântica QC 41  -  FIXA,-22.981655,-43.189716,-1.0
001204,Avenida Atlântica QC 41  -  FIXA,-22.981200639999997,-43.18969454,-1.0
001205,"Avenida Atlântica, 3958, em frente à, R. Julio  -  FIXA",-22.98350867,-43.189390339999996,-1.0
001206,"Avenida Atlântica, 3958, em frente à, R. Julio  -  FIXA",-22.98350867,-43.189492269999995,-1.0
001207,"Avenida Atlântica, 3958, em frente à, R. Julio  -  FIXA",-22.98331113,-43.189352789999994,-1.0
001208,"Avenida Atlântica, 3958, em frente à, R. Julio  -  FIXA",-22.98359757,-43.18944667,-1.0
001209,Copacabana Prox. Posto 5  -  FIXA,-22.980605,-43.189594,-1.0
001210,Copacabana Prox. Posto 5  -  FIXA,-22.98075439,-43.18962617999999,-1.0
001211,Av Atlântica 3888 - Praia -  FIXA,-22.982754,-43.18955,-1.0
001212,Av Atlântica 3888 - Praia -  FIXA,-22.98289721,-43.18944539,-1.0
001213,Av Atlântica 3888 - Praia -  FIXA,-22.982692259999997,-43.18946416,-1.0
001214,Av Atlântica 3888 - Praia -  FIXA,-22.982558919999995,-43.189609000000004,-1.0
001215,"R. Real Grandeza, 384 - Botafogo  -  FIXA",-22.95953612,-43.191049709999994,-1.0
001216,"R. Real Grandeza, 384 - Botafogo  -  FIXA",-22.959743569999997,-43.190915600000004,-1.0
001217,R. Real Grandeza x Saída do Túnel Alaor Prata - FIXA,-22.960693799999998,-43.19053002999999,-1.0
001218,R. Real Grandeza x Saída do Túnel Alaor Prata -  FIXA,-22.96084259,-43.19058837,-1.0
001219,Av. Atlântica x Ponta do Leme -FIXA,-22.96284882,-43.167093799999996,-1.0
001220,Av. Atlântica x Ponta do Leme -FIXA,-22.96283956,-43.167009979999996,-1.0
001221,R. Tonelero X R. Figueiredo Magalhaes - FIXA,-22.96790369,-43.187782059999996,-1.0
001222,R. Tonelero X R. Figueiredo Magalhães - FIXA,-22.96783763,-43.187922209999996,-1.0
001223,"R. Barata Ribeiro, 450",-22.9692008,-43.186741729999994,-1.0
001226,AV. NOSSA Sra DE  COPACABANA X R. FIG. MAGALHÃES - FIXA,-22.97024033,-43.18610192999999,-1.0
001227,AV. NOSSA Sra DE  COPACABANA X R. FIG. MAGALHÃES - FIXA,-22.97015081,-43.18597183999999,-1.0
001228,AV. NOSSA Sra DE  COPACABANA X R. FIG. MAGALHÃES - FIXA,-22.970346519999996,-43.18601744,-1.0
001229,Av. Atlântica x Ponta do Leme -FIXA,-22.96309393,-43.16783074,-1.0
001230,Av. Atlântica x Ponta do Leme -FIXA,-22.96313901,-43.167944729999995,-1.0
001231,Av. Atlântica x Ponta do Leme - FIXA,-22.96264,-43.165506,-1.0
001232,Av. Atlântica x Ponta do Leme - FIXA,-22.962636,-43.165424,-1.0
001233,Av. Atlântica x Ponta do Leme - FIXA,-22.962656,-43.164759,-1.0
001234,Av. Atlântica x Ponta do Leme - FIXA,-22.962674,-43.164681,-1.0
001235,Av. Atlântica x Hotel Verdinho - FIXA,-22.976981,-43.188538,-1.0
001236,Av. Atlântica x Hotel Verdinho - FIXA,-22.977102,-43.18861578,-1.0
001238,Av. Atlântica x R Bolivar - FIXA,-22.97595116,-43.18773185999999,-1.0
001239,Av. Atlântica x R Barão de Ipanema - FIXA,-22.97568323,-43.18740261,-1.0
001240,Av. Atlântica x Rua Barão de Ipanema - FIXA,-22.97560976,-43.18735165,-1.0
001241,Av. Atlântica x  Quiosque Flor do Caribe - FIXA,-22.977121029999996,-43.18817421,-1.0
001242,Av. Atlântica x  Quiosque Flor do Caribe - FIXA,-22.97701978,-43.188278819999994,-1.0
001243,Av. Atlântica x  Quiosque Flor do Caribe - FIXA,-22.97705806,-43.18814001,-1.0
001244,Av. Atlântica x  Quiosque Flor do Caribe - FIXA,-22.97703213,-43.187960309999994,-1.0
001245,Av. Atlântica x Constante Ramos - FIXA,-22.975135629999997,-43.18705326,-1.0
001246,Av. Atlântica x Constante Ramos - FIXA,-22.975062780000002,-43.187008999999996,-1.0
001247,R. Constante Ramos N 19  - FIXA,-22.97478003,-43.18756019,-1.0
001248,R. Constante Ramos N 19  - FIXA,-22.97483621,-43.18746967,-1.0
001249,Av. Atlântica Prox Posto BR - FIXA,-22.97386942,-43.18634313999999,-1.0
001250,Av. Atlântica Prox Posto BR - FIXA,-22.973836699999996,-43.18646518,-1.0
001251,"Av. Lauro Sodré, 20    -  FIXA",-22.956630559999997,-43.17772349,-1.0
001252,Av. Lauro Sodré    -  FIXA,-22.956655259999998,-43.177755669999996,-1.0
001253,Av. Lauro Sodré    -  FIXA,-22.95730728,-43.17764301999999,-1.0
001254,Av. Lauro Sodré    -  FIXA,-22.95781111,-43.177524999999996,-1.0
001255,Av. Lauro Sodré   - FIXA,-22.95823097,-43.17743381,-1.0
001256,Av. Lauro Sodré  - FIXA,-22.95836433,-43.177374799999996,-1.0
001261,"Av. Lauro Sodré,  191 - FIXA",-22.954665059999996,-43.17851519,-1.0
001262,Av. Lauro Sodré - Botafogo  - FIXA,-22.95382532,-43.1787995,-1.0
001263,Av. Lauro Sodré - Botafogo  - FIXA,-22.95511457,-43.17838644,-1.0
001264,Av. Lauro Sodré - Botafogo  - FIXA,-22.95447735,-43.178601019999995,-1.0
001266,AV. ALFREDO BALTAZAR DA SILVEIRA X AV. PEDRO MOURA  - FIXA,-23.01793098,-43.450724699999995,-1.0
001267,AV. ALFREDO BALTAZAR DA SILVEIRA X AV. PEDRO MOURA  - FIXA,-23.01808157,-43.450494029999994,-1.0
001269,Av. Lucio Costa x Av. do Contorno (Final do Eco Orla) - FIXA,-23.02245848,-43.44758879999999,-1.0
001270,Av. Lucio Costa x Av. do Contorno (Final do Eco Orla) - FIXA,-23.022321469999998,-43.44743189,-1.0
001271,Av. Lucio Costa x Av. do Contorno (Final do Eco Orla) - FIXA,-23.02253377,-43.447898599999995,-1.0
001274,HOTEL FAIRMONT -  COPACABANA,-22.98580409,-43.18936023,-1.0
001275,HOTEL OTHON -  COPACABANA,-22.977448699999997,-43.189119999999996,-1.0
001276,HOTEL ARENA  -  COPACABANA,-22.96912374,-43.18181141,-1.0
001278,"Av. Atlântica, 3530",-22.979683379999997,-43.18909634999999,-1.0
001279,"Av. Atlântica, 3530  - FIXA",-22.97975129,-43.189371269999995,-1.0
001280,"Av. Atlântica, 3530  - FIXA",-22.979862,-43.189414,-1.0
001282,Copacabana Prox. Posto 5  -  FIXA,-22.98038817,-43.18924483,-1.0
001283,Copacabana Prox. Posto 5  -  FIXA,-22.980503,-43.189273,-1.0
001284,"R. Santa Clara, S/N - Copacabana - FIXA",-22.97376836,-43.18573163,-1.0
001285,"R. Santa Clara, S/N - Copacabana - FIXA",-22.9732152,-43.185999849999995,-1.0
001286,"R. Santa Clara, S/N - Copacabana - FIXA",-22.973343609999997,-43.18569944,-1.0
001287,"R. Santa Clara, S/N - Copacabana - FIXA",-22.97347696,-43.18581746,-1.0
001289,Avenida Alfredo Baltazar da Silveira x Rua Odilon Duarte Braga - FIXA,-23.01206166,-43.443797409999995,-1.0
001294,Av. Lucio Costa x R. Glaucio Gil -FIXA,-23.024996419999997,-43.45724985999999,-1.0
001296,"R. Joseph Bloch, 30 - Copacabana  -  FIXA",-22.96670265,-43.18886955,-1.0
001297,"R. Joseph Bloch, 30 - Copacabana  -  FIXA",-22.96655324,-43.189035839999995,-1.0
001298,Rua Figueiredo Magalhães x Rua Ministro Alfredo Valadão  -  FIXA,-22.966237,-43.189397,-1.0
001299,Rua Figueiredo Magalhães x Rua Ministro Alfredo Valadão  -  FIXA,-22.966348129999997,-43.18940236,-1.0
001301,Av. Alfredo Baltazar da Silveira X R. Glaucio Gil - FIXA,-23.0221891,-43.45812381,-1.0
001303,"Praça Vereador Rocha Leão, 50 -  FIXA",-22.9646571,-43.19073871999999,-1.0
001304,"Praça Vereador Rocha Leão, N 88 -  FIXA",-22.963979900000002,-43.1908386,-1.0
001305,"Praça Vereador Rocha Leão, N 88 -  FIXA",-22.964118199999998,-43.19091905999999,-1.0
001306,AV. GENARO DE CARVALHO X  R. JOAQUIM JOSE COUTO - FIXA,-23.01364,-43.446577,-1.0
001307,AV. GENARO DE CARVALHO X  R. JOAQUIM JOSE COUTO - FIXA,-23.01355606,-43.44689081,-1.0
001309,AV. LUCIO COSTA X RUA ALBERT SABIN - FIXA,-23.02828043,-43.466763650000004,-1.0
001311,Av. Gilka Machado X Estr. Do Pontal - FIXA,-23.030934069999997,-43.471780589999995,-1.0
001312,Estrada Do Pontal Em Frente Ao N.º 6870 - FIXA,-23.03019931,-43.478255669999996,-1.0
001314,"R. Santa Clara, 8 - FIXA",-22.97278057,-43.18596029,-1.0
001315,"R. Santa Clara, 8 - FIXA",-22.972659569999998,-43.18607227,-1.0
001316,Av. Atlântica  N 15- FIXA,-22.969565639999995,-43.18166099,-1.0
001317,Av. Atlântica  N 15- FIXA,-22.969466239999996,-43.18164623999999,-1.0
001318,Av. Atlântica  N 18- FIXA,-22.96978234,-43.181913789999996,-1.0
001319,Av. Atlântica  N 18- FIXA,-22.96970146,-43.181976819999996,-1.0
001320,Av. Atlântica  N 18- FIXA,-22.97012746,-43.18260513,-1.0
001321,Av. Atlântica  N 18- FIXA,-22.97022191,-43.18252869,-1.0
001326,Av. Atlântica N 109 - FIXA,-22.9705269,-43.182715099999996,-1.0
001327,Av. Atlântica N 109 - FIXA,-22.97068866,-43.182929679999994,-1.0
001328,Av. Atlântica N 109 - FIXA,-22.9707294,-43.182880729999994,-1.0
001329,Av. Atlântica N 109 - FIXA,-22.97067692,-43.182715769999994,-1.0
001330,"Av. Atlântica, N 110  - FIXA",-22.97206826,-43.18452808,-1.0
001331,"Av. Atlântica, N 110  - FIXA",-22.97211148,-43.18447176,-1.0
001332,"Av. Atlântica, N 110  - FIXA",-22.972162100000002,-43.184527409999994,-1.0
001333,"Av. Atlântica, N 110  - FIXA",-22.97222754,-43.1845938,-1.0
001334,"Rua Henrique Oswald, 70  -  FIXA",-22.964213779999998,-43.19142882,-1.0
001335,"Rua Henrique Oswald, 70  -  FIXA",-22.9642891,-43.19130276,-1.0
001337,Av. das Nações Unidas X  Botafogo - FIXA,-22.949602059999997,-43.180923729999996,-1.0
001338,Av. das Nações Unidas X  Botafogo - FIXA,-22.94985646,-43.18090093,-1.0
001339,Av. das Nações Unidas X  Botafogo - FIXA,-22.94982805,-43.180522059999994,-1.0
001340,Hotel Hilton,-22.9645625980134,-43.17328759259029,-1.0
001341,Praça Eugênio Jardim  - Fixa,-22.97645617,-43.19373621999999,-1.0
001342,Praça Eugênio Jardim  - Fixa,-22.97659631,-43.19378383,-1.0
001343,"Av. Henrique Dodsworth, 54 - FIXA",-22.976745179999998,-43.194493969999996,-1.0
001344,"Av. Henrique Dodsworth, 54  - FIXA",-22.976518,-43.194384,-1.0
001345,"Av. Henrique Dodsworth, 64 -  FIXA",-22.976664,-43.195109,-1.0
001346,"Av. Henrique Dodsworth, 64  - FIXA",-22.97687143,-43.19543487999999,-1.0
001347,"Av. Henrique Dodsworth, 64-142 - Copacabana - FIXA",-22.976828,-43.19633999999999,-1.0
001348,"Av. Henrique Dodsworth, 64-142 - Copacabana - FIXA",-22.97693665,-43.19659212,-1.0
001349,"Av. Nossa Sra. de Copacabana, 1033  - FIXA",-22.97813058,-43.190610359999994,-1.0
001350,"Av. Nossa Sra. de Copacabana, 1033  - FIXA",-22.97796266,-43.19050844,-1.0
001351,Av. das Nações Unidas  - FIXA,-22.95041245,-43.18002797,-1.0
001352,Av. das Nações Unidas - FIXA,-22.950624859999998,-43.179958230000004,-1.0
001353,Copacabana Prox. Posto 5  -  FIXA,-22.98041286,-43.18907316999999,-1.0
001354,Copacabana Prox. Posto 5  -  FIXA,-22.980541269999996,-43.18910535999999,-1.0
001355,R. Do Catete  X R. das Laranjeiras - FIXA,-22.931,-43.17796,36.0
001357,Av. Atlântica 250  -  FIXA,-22.965380919999998,-43.173495669999994,-1.0
001358,Av. Atlântica 250  - FIXA,-22.965426,-43.173609,-1.0
001359,Av. Atlântica 195  -  FIXA,-22.965798,-43.1742,-1.0
001360,Av. Atlântica 195  -  FIXA,-22.965742429999995,-43.17408801,-1.0
001361,"Av. Henrique Dodsworth, 193 - Copacabana   -  FIXA",-22.976537069999996,-43.19780227,-1.0
001362,"Av. Henrique Dodsworth, 193 - Copacabana   -  FIXA",-22.976443240000002,-43.198145589999996,-1.0
001363,"Praça Benedito Cerqueira, S/N - Lagoa   -  FIXA",-22.976619999999997,-43.197809,-1.0
001364,"Praça Benedito Cerqueira, S/N - Lagoa   -  FIXA",-22.976665679999996,-43.19758771,-1.0
001365,Av. Princesa Isabel Prox Augusto Rio copa - FIXA,-22.96174077,-43.17527540999999,-1.0
001366,Av. Princesa Isabel Prox Augusto Rio copa - FIXA,-22.96177349,-43.17537532,-1.0
001367,Av. Princesa Isabel - Copacabana- FIXA,-22.96297005,-43.174710129999994,-1.0
001368,Av. Princesa Isabel - Copacabana- FIXA,-22.962893489999995,-43.174542499999994,-1.0
001369,Av. Princesa Isabel - Copacabana- FIXA,-22.96304846,-43.174618939999995,-1.0
001370,Av. Princesa Isabel - Copacabana- FIXA,-22.9630095666806,-43.1744915395975,-1.0
001371,"Av. Nossa Sra. de Copacabana, 68 - FIXA",-22.9638677716795,-43.1742112487554,-1.0
001372,"Av. Nossa Sra. de Copacabana, 68 - FIXA",-22.963811579999998,-43.174069759999995,-1.0
001373,"Av. Nossa Sra. de Copacabana, Av Princesa Isabel  - FIXA",-22.964022119999996,-43.17374588,-1.0
001374,Av. Nossa Sra. de Copacabana X Av Princesa Isabel FIXA,-22.96388814,-43.17378544,-1.0
001375,"Av. Alfredo Balthazar da Silveira, 419 -  FIXA",-23.0092773,-43.44044451,-1.0
001376,"Av. Alfredo Balthazar da Silveira, 419 -  FIXA",-23.00940075,-43.44059202999999,-1.0
001381,R. Deodato de Moraes X Av Min Ivan Lins. FIXA,-23.010987,-43.301528,-1.0
001382,R. Deodato de Moraes X Av Min Ivan Lins. FIXA,-23.01104131,-43.3014368,-1.0
001383,R. SARGENTO JOÃO DE FARIA X AV. MINISTRO IVAN LINS - FIXA,-23.01332281,-43.29736559999999,-1.0
001384,"Av. Ayrton Senna, 5850 - Em Frente ao Espeço Hall - FIXA",-22.9603695,-43.35732,-1.0
001385,"Av. Ayrton Senna, 5850 - Em Frente ao Espeço Hall - FIXA",-22.960496689999996,-43.357329379999996,-1.0
001386,R. Dias da Cruz X  R. Ana Barbosa - FIXA,-22.902047109999998,-43.28024646,-1.0
001387,"Av. Armando Lombardi, 205 - FIXA",-23.0074709,-43.3068961,-1.0
001388,"Av. Armando Lombardi, 205 - FIXA",-23.00737084,-43.306760430000004,-1.0
001389,R. Francisco Eugênio - FIXA,-22.90702635,-43.21124587,-1.0
001390,R. Francisco Eugênio - FIXA,-22.906996709999998,-43.21102190999999,-1.0
001391,Estrada da Barra da Tijuca - Itanhangá  - FIXA,-23.003120899999995,-43.30464303,42.0
001392,Estrada da Barra da Tijuca - Itanhangá  - FIXA,-23.00306782,-43.30464772,42.0
001393,R. Jardim Botanico X R. Prof. Saldanha - FIXA,-22.96050733,-43.205057489999994,11.0
001394,"R. Carvalho Azevedo, 368 - FIXA",-22.964362,-43.203722,-1.0
001395,"R. Carvalho Azevedo, 368 - FIXA",-22.9643904,-43.203829279999994,-1.0
001396,Praia Do Flamengo X Av. Oswaldo Cruz - FIXA,-22.9387028,-43.17378083,-1.0
001397,R. MARQUÊS DE ABRANTES X ALTURA DA P.DE BOTAFOGO - FIXA,-22.940928839999998,-43.178738509999995,-1.0
001398,R. DO CATETE X R. CORRA DUTRA - FIXA,-22.93810162,-43.177770269999996,-1.0
001399,AV. BRASIL X AV. LOBO JUNIOR - FIXA,-22.82687611,-43.275049499999994,-1.0
001400,AV. DAS NAÇÕES UNIDAS X ALT. BOTAFOGO PRAIA SHOPPING - FIXA,-22.94824397,-43.18201421999999,-1.0
001401,R. MARIO  CARVALHO X AV. PST M. LUTHER KING JR - BRT -FIXA,-22.852201669999996,-43.316121859999996,-1.0
001402,R. MARIO  CARVALHO X AV. PST M. LUTHER KING JR - BRT -FIXA,-22.852282,-43.31603334999999,-1.0
001403,Praça Nossa Senhora Auxiliadora 93  - FIXA,-22.977686,-43.222394,24.0
001404,Praça Nossa Senhora Auxiliadora 93  - FIXA,-22.97770575,-43.22249592,24.0
001405,Praça Nossa Senhora Auxiliadora 93  - FIXA,-22.977639079999996,-43.22219685,24.0
001406,"Av. Bartolomeu Mitre, 1099 - FIXA",-22.978169,-43.224816,-1.0
001407,"Av. Bartolomeu Mitre, 1099 - FIXA",-22.97805787,-43.22485623,-1.0
001408,"Av. Bartolomeu Mitre, 1099 - FIXA",-22.9783579,-43.22478515,-1.0
001409,"Av. Bartolomeu Mitre, 1099 - FIXA",-22.97812702,-43.22457862,-1.0
001410,PRAÇA SIBELIUS  - FIXA,-22.97887277,-43.22896537,-1.0
001411,PRAÇA SIBELIUS  - FIXA,-22.97886042,-43.228836629999996,-1.0
001412,Av. Brás de Pina X R. Pe. Roser X Av. Meriti (Largo Do Bicão) - FIXA,-22.839037,-43.311611,-1.0
001413,Vd. Pref. Negrão de Lima X Estação Brt Madureira -FIXA,-22.87761719,-43.33638936,-1.0
001414,AV. NIEMEYER 54 - FIXA,-22.990757,-43.229449,-1.0
001415,AV. NIEMEYER 54 - FIXA,-22.990761,-43.22956,-1.0
001416,AV. NIEMEYER 88 - FIXA,-22.990624,-43.230661,-1.0
001417,AV. NIEMEYER 88 - FIXA,-22.990576,-43.230766,-1.0
001418,AV. NIEMEYER 683 - FIXA,-22.99087,-43.231765,-1.0
001419,AV. NIEMEYER 683 - FIXA,-22.990873,-43.231876,-1.0
001420,AV. NIEMEYER 126 - FIXA,-22.991043,-43.232612,-1.0
001421,AV. NIEMEYER 126 - FIXA,-22.99102,-43.232505,-1.0
001422,AV. NIEMEYER 170B - FIXA,-22.993002,-43.233977,-1.0
001423,AV. NIEMEYER 170B - FIXA,-22.993075,-43.233964,-1.0
001424,AV. NIEMEYER  204B - FIXA,-22.994778,-43.234833,-1.0
001425,AV. NIEMEYER  204B - FIXA,-22.99480022,-43.234668709999994,-1.0
001426,AV. NIEMEYER  226 - FIXA,-22.995806,-43.235542,-1.0
001427,AV. NIEMEYER  226 - FIXA,-22.9958776,-43.23556681,-1.0
001428,AV. NIEMEYER  359 - FIXA,-22.99671382,-43.23660218999999,-1.0
001429,AV. NIEMEYER  359 - FIXA,-22.99667,-43.236511,-1.0
001430,AV. NIEMEYER  318 - FIXA,-22.997696,-43.239254,-1.0
001431,AV. NIEMEYER  318 - FIXA,-22.997720689999998,-43.23932507,-1.0
001432,AV. NIEMEYER  - FIXA,-23.000616,-43.245274,-1.0
001433,AV. NIEMEYER  - FIXA,-23.000618,-43.245103,-1.0
001434,AV. NIEMEYER 376  - FIXA,-22.99972974,-43.24086523,-1.0
001435,AV. NIEMEYER 376  - FIXA,-22.999832819999998,-43.2409638,-1.0
001436,AV. NIEMEYER 400 - FIXA,-23.00013721,-43.24185602,-1.0
001437,AV. NIEMEYER 400 - FIXA,-23.000065,-43.241909,-1.0
001438,AV. NIEMEYER 749 - FIXA,-23.000046,-43.243214,-1.0
001439,AV. NIEMEYER 749 - FIXA,-23.00003674,-43.24312145999999,-1.0
001440,AV. NIEMEYER 418 - FIXA,-23.000633,-43.243912,-1.0
001441,AV. NIEMEYER 418 - FIXA,-23.00057806,-43.24380873,-1.0
001445,"Av. Niemeyer, 393 - São Conrado - FIXA",-22.9994,-43.24781,-1.0
001446,"Av. Niemeyer, 546-548 - São Conrado - FIXA",-22.998808,-43.25164,-1.0
001447,"Av. Niemeyer, 546-548 - São Conrado - FIXA",-22.99898,-43.25164,-1.0
001448,Av. Niemeyer Parque Natural Municipal - FIXA,-22.998695,-43.253143,-1.0
001449,Av. Niemeyer Parque Natural Municipal - FIXA,-22.998795,-43.253143,-1.0
001450,Av. Niemeyer Prox. Hotel Nacional - FIXA,-22.998474560000002,-43.25606813,-1.0
001451,"Portão do BRT - R. Barreiros, 21 - Ramos - FIXA",-22.854619369999998,-43.25063933,-1.0
001452,"Portão do BRT - R. Barreiros, 21 - Ramos - FIXA",-22.854565,-43.25087,-1.0
